{
"type": "FeatureCollection",
"features": [
{ "type": "Feature", "properties": { "osm_id": "168925514", "lastchange": "", "code": "2110", "fclass": "hospital", "name": "KPJ Selangor Specialist Hospital", "name_en": "", "source": "" }, "geometry": { "type": "Point", "coordinates": [ 101.540831, 3.057390 ] } }
,
{ "type": "Feature", "properties": { "osm_id": "168928764", "lastchange": "", "code": "2110", "fclass": "hospital", "name": "Poliklinik Salam", "name_en": "", "source": "" }, "geometry": { "type": "Point", "coordinates": [ 101.535355, 3.049146 ] } }
,
{ "type": "Feature", "properties": { "osm_id": "185608111", "lastchange": "", "code": "2110", "fclass": "hospital", "name": "Klinik Desa", "name_en": "", "source": "" }, "geometry": { "type": "Point", "coordinates": [ 102.957903, 2.466018 ] } }
,
{ "type": "Feature", "properties": { "osm_id": "185632242", "lastchange": "", "code": "2110", "fclass": "hospital", "name": "Klinik Mahkota", "name_en": "", "source": "" }, "geometry": { "type": "Point", "coordinates": [ 102.810867, 2.516715 ] } }
,
{ "type": "Feature", "properties": { "osm_id": "206203339", "lastchange": "", "code": "2110", "fclass": "hospital", "name": "Hospital Sungai Buloh", "name_en": "", "source": "" }, "geometry": { "type": "Point", "coordinates": [ 101.583418, 3.219017 ] } }
,
{ "type": "Feature", "properties": { "osm_id": "247172728", "lastchange": "", "code": "2110", "fclass": "hospital", "name": "Klinik Dr Daris", "name_en": "", "source": "" }, "geometry": { "type": "Point", "coordinates": [ 102.767084, 2.145472 ] } }
,
{ "type": "Feature", "properties": { "osm_id": "247173598", "lastchange": "", "code": "2110", "fclass": "hospital", "name": "Klinik", "name_en": "", "source": "" }, "geometry": { "type": "Point", "coordinates": [ 102.565070, 2.044712 ] } }
,
{ "type": "Feature", "properties": { "osm_id": "247369217", "lastchange": "", "code": "2110", "fclass": "hospital", "name": "Klinik Desa", "name_en": "", "source": "" }, "geometry": { "type": "Point", "coordinates": [ 102.780639, 2.157834 ] } }
,
{ "type": "Feature", "properties": { "osm_id": "247369226", "lastchange": "", "code": "2110", "fclass": "hospital", "name": "Klinik Kesihatan", "name_en": "", "source": "" }, "geometry": { "type": "Point", "coordinates": [ 102.774815, 2.151521 ] } }
,
{ "type": "Feature", "properties": { "osm_id": "248787824", "lastchange": "", "code": "2110", "fclass": "hospital", "name": "Hospital Klang", "name_en": "", "source": "" }, "geometry": { "type": "Point", "coordinates": [ 101.439886, 3.019710 ] } }
,
{ "type": "Feature", "properties": { "osm_id": "250447078", "lastchange": "", "code": "2110", "fclass": "hospital", "name": "Hospital Az-Zahrah", "name_en": "", "source": "" }, "geometry": { "type": "Point", "coordinates": [ 101.754240, 2.959734 ] } }
,
{ "type": "Feature", "properties": { "osm_id": "250447085", "lastchange": "", "code": "2110", "fclass": "hospital", "name": "Hospital An-Nur", "name_en": "", "source": "" }, "geometry": { "type": "Point", "coordinates": [ 101.753813, 2.959964 ] } }
,
{ "type": "Feature", "properties": { "osm_id": "253058116", "lastchange": "", "code": "2110", "fclass": "hospital", "name": "Hospital Serdang", "name_en": "", "source": "" }, "geometry": { "type": "Point", "coordinates": [ 101.719982, 2.976600 ] } }
,
{ "type": "Feature", "properties": { "osm_id": "274829066", "lastchange": "", "code": "2110", "fclass": "hospital", "name": "Klinik Desa Jorak", "name_en": "", "source": "" }, "geometry": { "type": "Point", "coordinates": [ 102.645541, 2.129118 ] } }
,
{ "type": "Feature", "properties": { "osm_id": "274829617", "lastchange": "", "code": "2110", "fclass": "hospital", "name": "Klinik Desa", "name_en": "", "source": "" }, "geometry": { "type": "Point", "coordinates": [ 102.603533, 2.143420 ] } }
,
{ "type": "Feature", "properties": { "osm_id": "276691332", "lastchange": "", "code": "2110", "fclass": "hospital", "name": "KPJ Medical Center", "name_en": "", "source": "" }, "geometry": { "type": "Point", "coordinates": [ 101.785844, 2.999857 ] } }
,
{ "type": "Feature", "properties": { "osm_id": "276691335", "lastchange": "", "code": "2110", "fclass": "hospital", "name": "KPMC Kajang Plaza Medical Center", "name_en": "", "source": "" }, "geometry": { "type": "Point", "coordinates": [ 101.788108, 2.995534 ] } }
,
{ "type": "Feature", "properties": { "osm_id": "286946163", "lastchange": "", "code": "2110", "fclass": "hospital", "name": "Klinik Desa", "name_en": "", "source": "" }, "geometry": { "type": "Point", "coordinates": [ 102.954252, 2.519651 ] } }
,
{ "type": "Feature", "properties": { "osm_id": "289936959", "lastchange": "", "code": "2110", "fclass": "hospital", "name": "Hospital Tawakal", "name_en": "", "source": "" }, "geometry": { "type": "Point", "coordinates": [ 101.699637, 3.177759 ] } }
,
{ "type": "Feature", "properties": { "osm_id": "302537162", "lastchange": "", "code": "2110", "fclass": "hospital", "name": "Klinik Kesihatan Bukit Gambir", "name_en": "", "source": "" }, "geometry": { "type": "Point", "coordinates": [ 102.654866, 2.212800 ] } }
,
{ "type": "Feature", "properties": { "osm_id": "302537246", "lastchange": "", "code": "2110", "fclass": "hospital", "name": "Klinik Keluarga", "name_en": "", "source": "" }, "geometry": { "type": "Point", "coordinates": [ 102.650605, 2.209960 ] } }
,
{ "type": "Feature", "properties": { "osm_id": "302537260", "lastchange": "", "code": "2110", "fclass": "hospital", "name": "Klinik Malaya", "name_en": "", "source": "" }, "geometry": { "type": "Point", "coordinates": [ 102.653597, 2.210774 ] } }
,
{ "type": "Feature", "properties": { "osm_id": "302537261", "lastchange": "", "code": "2110", "fclass": "hospital", "name": "Klinik Wee", "name_en": "", "source": "" }, "geometry": { "type": "Point", "coordinates": [ 102.652830, 2.211493 ] } }
,
{ "type": "Feature", "properties": { "osm_id": "302537262", "lastchange": "", "code": "2110", "fclass": "hospital", "name": "Klinik Elizabeth", "name_en": "", "source": "" }, "geometry": { "type": "Point", "coordinates": [ 102.663191, 2.218376 ] } }
,
{ "type": "Feature", "properties": { "osm_id": "303182662", "lastchange": "", "code": "2110", "fclass": "hospital", "name": "Klinik Kesihatan", "name_en": "", "source": "" }, "geometry": { "type": "Point", "coordinates": [ 102.783951, 2.363139 ] } }
,
{ "type": "Feature", "properties": { "osm_id": "304155163", "lastchange": "", "code": "2110", "fclass": "hospital", "name": "Putra Specialist Hospital", "name_en": "", "source": "" }, "geometry": { "type": "Point", "coordinates": [ 102.922218, 1.857652 ] } }
,
{ "type": "Feature", "properties": { "osm_id": "312108493", "lastchange": "", "code": "2110", "fclass": "hospital", "name": "Hospital Tawakal", "name_en": "", "source": "" }, "geometry": { "type": "Point", "coordinates": [ 101.699792, 3.177211 ] } }
,
{ "type": "Feature", "properties": { "osm_id": "313042199", "lastchange": "", "code": "2110", "fclass": "hospital", "name": "Hospital Pusrawi SMC", "name_en": "", "source": "" }, "geometry": { "type": "Point", "coordinates": [ 101.791320, 2.992275 ] } }
,
{ "type": "Feature", "properties": { "osm_id": "333695233", "lastchange": "", "code": "2110", "fclass": "hospital", "name": "Hospital Pakar Sultanah Fatimah", "name_en": "", "source": "" }, "geometry": { "type": "Point", "coordinates": [ 102.574538, 2.057264 ] } }
,
{ "type": "Feature", "properties": { "osm_id": "348313849", "lastchange": "", "code": "2110", "fclass": "hospital", "name": "Hospital Darul Ehsan", "name_en": "", "source": "" }, "geometry": { "type": "Point", "coordinates": [ 101.522495, 3.084461 ] } }
,
{ "type": "Feature", "properties": { "osm_id": "364126113", "lastchange": "", "code": "2110", "fclass": "hospital", "name": "Pusat Perubatan Sentosa", "name_en": "", "source": "" }, "geometry": { "type": "Point", "coordinates": [ 101.697410, 3.170850 ] } }
,
{ "type": "Feature", "properties": { "osm_id": "390359400", "lastchange": "", "code": "2110", "fclass": "hospital", "name": "Hospital Segamat", "name_en": "", "source": "" }, "geometry": { "type": "Point", "coordinates": [ 102.858921, 2.492582 ] } }
,
{ "type": "Feature", "properties": { "osm_id": "530272929", "lastchange": "", "code": "2110", "fclass": "hospital", "name": "Klinik Kesihatan Kuarters KLIA", "name_en": "", "source": "" }, "geometry": { "type": "Point", "coordinates": [ 101.764844, 2.766562 ] } }
,
{ "type": "Feature", "properties": { "osm_id": "532822066", "lastchange": "", "code": "2110", "fclass": "hospital", "name": "Pusat Kesihatan Salak", "name_en": "", "source": "" }, "geometry": { "type": "Point", "coordinates": [ 101.749564, 2.789640 ] } }
,
{ "type": "Feature", "properties": { "osm_id": "549672299", "lastchange": "", "code": "2110", "fclass": "hospital", "name": "KPJ Seremban Specialist Hospital", "name_en": "", "source": "" }, "geometry": { "type": "Point", "coordinates": [ 101.922130, 2.718407 ] } }
,
{ "type": "Feature", "properties": { "osm_id": "579708810", "lastchange": "", "code": "2110", "fclass": "hospital", "name": "Hospital Putrajaya", "name_en": "", "source": "" }, "geometry": { "type": "Point", "coordinates": [ 101.674100, 2.928948 ] } }
,
{ "type": "Feature", "properties": { "osm_id": "598841940", "lastchange": "", "code": "2110", "fclass": "hospital", "name": "Hospital Sungai Petani", "name_en": "", "source": "" }, "geometry": { "type": "Point", "coordinates": [ 100.516735, 5.669320 ] } }
,
{ "type": "Feature", "properties": { "osm_id": "615146686", "lastchange": "", "code": "2110", "fclass": "hospital", "name": "Pantai Hospital", "name_en": "", "source": "" }, "geometry": { "type": "Point", "coordinates": [ 102.287719, 2.237856 ] } }
,
{ "type": "Feature", "properties": { "osm_id": "657549485", "lastchange": "", "code": "2110", "fclass": "hospital", "name": "Klinik Desa Kampung Jijan", "name_en": "", "source": "" }, "geometry": { "type": "Point", "coordinates": [ 101.778481, 2.765851 ] } }
,
{ "type": "Feature", "properties": { "osm_id": "710167968", "lastchange": "", "code": "2110", "fclass": "hospital", "name": "Columbia Hospital Seremban", "name_en": "", "source": "" }, "geometry": { "type": "Point", "coordinates": [ 101.917866, 2.710707 ] } }
,
{ "type": "Feature", "properties": { "osm_id": "718431652", "lastchange": "", "code": "2110", "fclass": "hospital", "name": "Klinik Kesihatan Nilai", "name_en": "", "source": "" }, "geometry": { "type": "Point", "coordinates": [ 101.798286, 2.802608 ] } }
,
{ "type": "Feature", "properties": { "osm_id": "736645445", "lastchange": "", "code": "2110", "fclass": "hospital", "name": "Klinik Bersalin Elizabeth", "name_en": "", "source": "" }, "geometry": { "type": "Point", "coordinates": [ 104.022140, 1.184230 ] } }
,
{ "type": "Feature", "properties": { "osm_id": "736645876", "lastchange": "", "code": "2110", "fclass": "hospital", "name": "Puskesmas T.Sengkuang", "name_en": "", "source": "" }, "geometry": { "type": "Point", "coordinates": [ 104.014670, 1.183430 ] } }
,
{ "type": "Feature", "properties": { "osm_id": "760086162", "lastchange": "", "code": "2110", "fclass": "hospital", "name": "Ipoh Specialist Hospital", "name_en": "", "source": "" }, "geometry": { "type": "Point", "coordinates": [ 101.095848, 4.594383 ] } }
,
{ "type": "Feature", "properties": { "osm_id": "821392020", "lastchange": "", "code": "2110", "fclass": "hospital", "name": "Hospital Kajang", "name_en": "", "source": "" }, "geometry": { "type": "Point", "coordinates": [ 101.793059, 2.992955 ] } }

,
{ "type": "Feature", "properties": { "osm_id": "1005023319", "lastchange": "", "code": "2110", "fclass": "hospital", "name": "Columbia Asia", "name_en": "", "source": "" }, "geometry": { "type": "Point", "coordinates": [ 101.528950, 2.997125 ] } }
,
{ "type": "Feature", "properties": { "osm_id": "1027161465", "lastchange": "", "code": "2110", "fclass": "hospital", "name": "KPMC", "name_en": "", "source": "" }, "geometry": { "type": "Point", "coordinates": [ 101.615832, 3.024670 ] } }
,
{ "type": "Feature", "properties": { "osm_id": "1067394554", "lastchange": "", "code": "2110", "fclass": "hospital", "name": "Klinik Kesihatan", "name_en": "", "source": "" }, "geometry": { "type": "Point", "coordinates": [ 101.576875, 3.218929 ] } }
,
{ "type": "Feature", "properties": { "osm_id": "1085296414", "lastchange": "", "code": "2110", "fclass": "hospital", "name": "Putra Medical Center", "name_en": "", "source": "" }, "geometry": { "type": "Point", "coordinates": [ 101.562080, 3.209480 ] } }
,
{ "type": "Feature", "properties": { "osm_id": "1129299264", "lastchange": "", "code": "2110", "fclass": "hospital", "name": "University Hospital", "name_en": "", "source": "" }, "geometry": { "type": "Point", "coordinates": [ 100.302848, 5.359151 ] } }
,
{ "type": "Feature", "properties": { "osm_id": "1222867708", "lastchange": "", "code": "2110", "fclass": "hospital", "name": "Pantai Hospital", "name_en": "", "source": "" }, "geometry": { "type": "Point", "coordinates": [ 101.666387, 3.119863 ] } }
,
{ "type": "Feature", "properties": { "osm_id": "1319904966", "lastchange": "", "code": "2110", "fclass": "hospital", "name": "Kinabatangan Hospital", "name_en": "", "source": "" }, "geometry": { "type": "Point", "coordinates": [ 117.978518, 5.563385 ] } }
,
{ "type": "Feature", "properties": { "osm_id": "1456699905", "lastchange": "", "code": "2110", "fclass": "hospital", "name": "Cameron Highland Hopital", "name_en": "", "source": "" }, "geometry": { "type": "Point", "coordinates": [ 101.390862, 4.466618 ] } }
,
{ "type": "Feature", "properties": { "osm_id": "1456699908", "lastchange": "", "code": "2110", "fclass": "hospital", "name": "Clinic", "name_en": "", "source": "" }, "geometry": { "type": "Point", "coordinates": [ 101.379766, 4.471644 ] } }
,
{ "type": "Feature", "properties": { "osm_id": "1470867334", "lastchange": "", "code": "2110", "fclass": "hospital", "name": "Pantai Mutiara Hospital", "name_en": "", "source": "" }, "geometry": { "type": "Point", "coordinates": [ 100.282270, 5.321081 ] } }
,
{ "type": "Feature", "properties": { "osm_id": "1477783248", "lastchange": "", "code": "2110", "fclass": "hospital", "name": "", "name_en": "", "source": "" }, "geometry": { "type": "Point", "coordinates": [ 104.158256, 2.818016 ] } }
,
{ "type": "Feature", "properties": { "osm_id": "1536214379", "lastchange": "", "code": "2110", "fclass": "hospital", "name": "Ampang Hospital", "name_en": "", "source": "" }, "geometry": { "type": "Point", "coordinates": [ 101.763920, 3.128090 ] } }
,
{ "type": "Feature", "properties": { "osm_id": "1548294301", "lastchange": "", "code": "2110", "fclass": "hospital", "name": "Prince Court Medical Center (+60321600000)", "name_en": "", "source": "" }, "geometry": { "type": "Point", "coordinates": [ 101.721968, 3.148621 ] } }
,
{ "type": "Feature", "properties": { "osm_id": "1594369824", "lastchange": "", "code": "2110", "fclass": "hospital", "name": "Klinik Kesihatan Sungai Pelek", "name_en": "", "source": "" }, "geometry": { "type": "Point", "coordinates": [ 101.718818, 2.644641 ] } }
,
{ "type": "Feature", "properties": { "osm_id": "1598732349", "lastchange": "", "code": "2110", "fclass": "hospital", "name": "Hospital Kemaman", "name_en": "", "source": "" }, "geometry": { "type": "Point", "coordinates": [ 103.420925, 4.231516 ] } }
,
{ "type": "Feature", "properties": { "osm_id": "1603441656", "lastchange": "", "code": "2110", "fclass": "hospital", "name": "", "name_en": "", "source": "" }, "geometry": { "type": "Point", "coordinates": [ 100.557974, 5.367883 ] } }
,
{ "type": "Feature", "properties": { "osm_id": "1610799509", "lastchange": "", "code": "2110", "fclass": "hospital", "name": "Hospital Bukit Mertajam", "name_en": "", "source": "" }, "geometry": { "type": "Point", "coordinates": [ 100.464369, 5.359915 ] } }
,
{ "type": "Feature", "properties": { "osm_id": "1621786094", "lastchange": "", "code": "2110", "fclass": "hospital", "name": "Tengku Ampuan Afzan Hospital", "name_en": "", "source": "" }, "geometry": { "type": "Point", "coordinates": [ 103.321871, 3.801312 ] } }
,
{ "type": "Feature", "properties": { "osm_id": "1631398125", "lastchange": "", "code": "2110", "fclass": "hospital", "name": "Kelana Jaya Medical Centre", "name_en": "", "source": "" }, "geometry": { "type": "Point", "coordinates": [ 101.595321, 3.108436 ] } }
,
{ "type": "Feature", "properties": { "osm_id": "1657352311", "lastchange": "", "code": "2110", "fclass": "hospital", "name": "Lam Wah Eee", "name_en": "", "source": "" }, "geometry": { "type": "Point", "coordinates": [ 100.303893, 5.391868 ] } }
,
{ "type": "Feature", "properties": { "osm_id": "1666829944", "lastchange": "", "code": "2110", "fclass": "hospital", "name": "Hospital Assunta", "name_en": "", "source": "" }, "geometry": { "type": "Point", "coordinates": [ 101.645499, 3.093412 ] } }
,
{ "type": "Feature", "properties": { "osm_id": "1680969903", "lastchange": "", "code": "2110", "fclass": "hospital", "name": "Hospital Bentong", "name_en": "", "source": "" }, "geometry": { "type": "Point", "coordinates": [ 101.906556, 3.526133 ] } }
,
{ "type": "Feature", "properties": { "osm_id": "1681212517", "lastchange": "", "code": "2110", "fclass": "hospital", "name": "KUANTAN MEDICAL CTR", "name_en": "", "source": "" }, "geometry": { "type": "Point", "coordinates": [ 103.330130, 3.814080 ] } }
,
{ "type": "Feature", "properties": { "osm_id": "1712488960", "lastchange": "", "code": "2110", "fclass": "hospital", "name": "Pontian Hospital", "name_en": "", "source": "" }, "geometry": { "type": "Point", "coordinates": [ 103.385294, 1.498466 ] } }
,
{ "type": "Feature", "properties": { "osm_id": "1730075068", "lastchange": "", "code": "2110", "fclass": "hospital", "name": "London Children's Clinic", "name_en": "", "source": "" }, "geometry": { "type": "Point", "coordinates": [ 101.607790, 3.184629 ] } }
,
{ "type": "Feature", "properties": { "osm_id": "1748129392", "lastchange": "", "code": "2110", "fclass": "hospital", "name": "Slim River Hospital", "name_en": "", "source": "" }, "geometry": { "type": "Point", "coordinates": [ 101.404224, 3.837935 ] } }
,
{ "type": "Feature", "properties": { "osm_id": "1752263717", "lastchange": "", "code": "2110", "fclass": "hospital", "name": "Klinik Desa Behrang Stesen", "name_en": "", "source": "" }, "geometry": { "type": "Point", "coordinates": [ 101.450082, 3.744487 ] } }
,
{ "type": "Feature", "properties": { "osm_id": "1774214837", "lastchange": "", "code": "2110", "fclass": "hospital", "name": "Hospital Duchess of Kent", "name_en": "", "source": "" }, "geometry": { "type": "Point", "coordinates": [ 118.103220, 5.859075 ] } }
,
{ "type": "Feature", "properties": { "osm_id": "1784052246", "lastchange": "", "code": "2110", "fclass": "hospital", "name": "Hospital Kulim", "name_en": "", "source": "" }, "geometry": { "type": "Point", "coordinates": [ 100.574116, 5.392500 ] } }
,
{ "type": "Feature", "properties": { "osm_id": "1795197659", "lastchange": "", "code": "2110", "fclass": "hospital", "name": "Klinik Kemahang", "name_en": "", "source": "" }, "geometry": { "type": "Point", "coordinates": [ 102.005601, 5.855309 ] } }
,
{ "type": "Feature", "properties": { "osm_id": "1802410802", "lastchange": "", "code": "2110", "fclass": "hospital", "name": "Klinik Mediveron", "name_en": "", "source": "" }, "geometry": { "type": "Point", "coordinates": [ 101.489425, 3.066712 ] } }
,
{ "type": "Feature", "properties": { "osm_id": "1821014087", "lastchange": "", "code": "2110", "fclass": "hospital", "name": "Pusat Perubatan Nluri", "name_en": "", "source": "" }, "geometry": { "type": "Point", "coordinates": [ 101.744267, 3.201231 ] } }

,
{ "type": "Feature", "properties": { "osm_id": "1841529277", "lastchange": "", "code": "2110", "fclass": "hospital", "name": "", "name_en": "", "source": "" }, "geometry": { "type": "Point", "coordinates": [ 114.313743, 4.604763 ] } }
,
{ "type": "Feature", "properties": { "osm_id": "1863073733", "lastchange": "", "code": "2110", "fclass": "hospital", "name": "Hospital Kota Bharu", "name_en": "", "source": "" }, "geometry": { "type": "Point", "coordinates": [ 102.245722, 6.125223 ] } }
,
{ "type": "Feature", "properties": { "osm_id": "1868337627", "lastchange": "", "code": "2110", "fclass": "hospital", "name": "Melaka General Hospital", "name_en": "", "source": "" }, "geometry": { "type": "Point", "coordinates": [ 102.260520, 2.218413 ] } }
,
{ "type": "Feature", "properties": { "osm_id": "1910989158", "lastchange": "", "code": "2110", "fclass": "hospital", "name": "Langkawi Medical Centre", "name_en": "", "source": "" }, "geometry": { "type": "Point", "coordinates": [ 99.861122, 6.333124 ] } }
,
{ "type": "Feature", "properties": { "osm_id": "1926651745", "lastchange": "", "code": "2110", "fclass": "hospital", "name": "Government Clinic", "name_en": "", "source": "" }, "geometry": { "type": "Point", "coordinates": [ 101.629828, 3.140263 ] } }
,
{ "type": "Feature", "properties": { "osm_id": "1979200189", "lastchange": "", "code": "2110", "fclass": "hospital", "name": "Klinik Kesihatan Paka", "name_en": "", "source": "" }, "geometry": { "type": "Point", "coordinates": [ 103.437526, 4.631813 ] } }
,
{ "type": "Feature", "properties": { "osm_id": "1979531486", "lastchange": "", "code": "2110", "fclass": "hospital", "name": "Sime Darby Medical Hospital Subang Jaya", "name_en": "", "source": "" }, "geometry": { "type": "Point", "coordinates": [ 101.593632, 3.078264 ] } }
,
{ "type": "Feature", "properties": { "osm_id": "1995330842", "lastchange": "", "code": "2110", "fclass": "hospital", "name": "Hospital Lahad Datu", "name_en": "", "source": "" }, "geometry": { "type": "Point", "coordinates": [ 118.314537, 5.027635 ] } }
,
{ "type": "Feature", "properties": { "osm_id": "1995368127", "lastchange": "", "code": "2110", "fclass": "hospital", "name": "Lahad Datu Hospital", "name_en": "", "source": "" }, "geometry": { "type": "Point", "coordinates": [ 118.313882, 5.027002 ] } }
,
{ "type": "Feature", "properties": { "osm_id": "2129773551", "lastchange": "", "code": "2110", "fclass": "hospital", "name": "Clinic Desa Batu Feringgi", "name_en": "", "source": "" }, "geometry": { "type": "Point", "coordinates": [ 100.247871, 5.473242 ] } }
,
{ "type": "Feature", "properties": { "osm_id": "32041987", "lastchange": "", "code": "2110", "fclass": "hospital", "name": "Puskesmas Karang Setra", "name_en": "", "source": "" }, "geometry": { "type": "Point", "coordinates": [ 107.591138, -6.877397 ] } }
,
{ "type": "Feature", "properties": { "osm_id": "32520363", "lastchange": "", "code": "2110", "fclass": "hospital", "name": "Puskesmas Sukajadi", "name_en": "", "source": "" }, "geometry": { "type": "Point", "coordinates": [ 107.594404, -6.892201 ] } }
,
{ "type": "Feature", "properties": { "osm_id": "32520369", "lastchange": "", "code": "2110", "fclass": "hospital", "name": "RS Sariningsih", "name_en": "", "source": "" }, "geometry": { "type": "Point", "coordinates": [ 107.610876, -6.906735 ] } }
,
{ "type": "Feature", "properties": { "osm_id": "32520372", "lastchange": "", "code": "2110", "fclass": "hospital", "name": "RS Limijati", "name_en": "", "source": "" }, "geometry": { "type": "Point", "coordinates": [ 107.613137, -6.906585 ] } }
,
{ "type": "Feature", "properties": { "osm_id": "32520373", "lastchange": "", "code": "2110", "fclass": "hospital", "name": "Rumah Sakit Santo Boromeus", "name_en": "", "source": "" }, "geometry": { "type": "Point", "coordinates": [ 107.613450, -6.894274 ] } }
,
{ "type": "Feature", "properties": { "osm_id": "32520381", "lastchange": "", "code": "2110", "fclass": "hospital", "name": "Halmahera Siaga", "name_en": "", "source": "" }, "geometry": { "type": "Point", "coordinates": [ 107.615651, -6.906597 ] } }
,
{ "type": "Feature", "properties": { "osm_id": "32520384", "lastchange": "", "code": "2110", "fclass": "hospital", "name": "RS ZR Tedja", "name_en": "", "source": "" }, "geometry": { "type": "Point", "coordinates": [ 107.620144, -6.905743 ] } }
,
{ "type": "Feature", "properties": { "osm_id": "32527736", "lastchange": "", "code": "2110", "fclass": "hospital", "name": "Cicendo Eye Hospital", "name_en": "", "source": "" }, "geometry": { "type": "Point", "coordinates": [ 107.604556, -6.910497 ] } }
,
{ "type": "Feature", "properties": { "osm_id": "32529117", "lastchange": "", "code": "2110", "fclass": "hospital", "name": "Kebon Jati", "name_en": "", "source": "" }, "geometry": { "type": "Point", "coordinates": [ 107.596900, -6.915679 ] } }
,
{ "type": "Feature", "properties": { "osm_id": "32529122", "lastchange": "", "code": "2110", "fclass": "hospital", "name": "Rajawali", "name_en": "", "source": "" }, "geometry": { "type": "Point", "coordinates": [ 107.573227, -6.912508 ] } }
,
{ "type": "Feature", "properties": { "osm_id": "32529134", "lastchange": "", "code": "2110", "fclass": "hospital", "name": "RS Cibadak", "name_en": "", "source": "" }, "geometry": { "type": "Point", "coordinates": [ 107.596473, -6.920721 ] } }
,
{ "type": "Feature", "properties": { "osm_id": "32529140", "lastchange": "", "code": "2110", "fclass": "hospital", "name": "Rumah Sakit Immanuel", "name_en": "", "source": "" }, "geometry": { "type": "Point", "coordinates": [ 107.596926, -6.934786 ] } }
,
{ "type": "Feature", "properties": { "osm_id": "32529144", "lastchange": "", "code": "2110", "fclass": "hospital", "name": "Santosa International Hospital", "name_en": "", "source": "" }, "geometry": { "type": "Point", "coordinates": [ 107.601538, -6.915759 ] } }
,
{ "type": "Feature", "properties": { "osm_id": "32529148", "lastchange": "", "code": "2110", "fclass": "hospital", "name": "Melinda", "name_en": "", "source": "" }, "geometry": { "type": "Point", "coordinates": [ 107.603374, -6.906684 ] } }
,
{ "type": "Feature", "properties": { "osm_id": "259664972", "lastchange": "", "code": "2110", "fclass": "hospital", "name": "Telogorejo", "name_en": "", "source": "" }, "geometry": { "type": "Point", "coordinates": [ 110.426428, -6.988007 ] } }
,
{ "type": "Feature", "properties": { "osm_id": "259665256", "lastchange": "", "code": "2110", "fclass": "hospital", "name": "St Elizabeth", "name_en": "", "source": "" }, "geometry": { "type": "Point", "coordinates": [ 110.418706, -7.007975 ] } }
,
{ "type": "Feature", "properties": { "osm_id": "259752779", "lastchange": "", "code": "2110", "fclass": "hospital", "name": "", "name_en": "", "source": "" }, "geometry": { "type": "Point", "coordinates": [ 110.439578, -6.969824 ] } }
,
{ "type": "Feature", "properties": { "osm_id": "309730932", "lastchange": "", "code": "2110", "fclass": "hospital", "name": "RS Pusat Pertamina", "name_en": "", "source": "" }, "geometry": { "type": "Point", "coordinates": [ 106.792923, -6.240233 ] } }
,
{ "type": "Feature", "properties": { "osm_id": "315471556", "lastchange": "", "code": "2110", "fclass": "hospital", "name": "RS Bunda", "name_en": "", "source": "" }, "geometry": { "type": "Point", "coordinates": [ 106.836445, -6.196157 ] } }
,
{ "type": "Feature", "properties": { "osm_id": "315496554", "lastchange": "", "code": "2110", "fclass": "hospital", "name": "RS Harapan Kita", "name_en": "", "source": "" }, "geometry": { "type": "Point", "coordinates": [ 106.797986, -6.184807 ] } }
,
{ "type": "Feature", "properties": { "osm_id": "315496792", "lastchange": "", "code": "2110", "fclass": "hospital", "name": "RS Sumber Waras", "name_en": "", "source": "" }, "geometry": { "type": "Point", "coordinates": [ 106.798261, -6.167314 ] } }
,
{ "type": "Feature", "properties": { "osm_id": "316452691", "lastchange": "", "code": "2110", "fclass": "hospital", "name": "RS Mintohardjo", "name_en": "", "source": "" }, "geometry": { "type": "Point", "coordinates": [ 106.811914, -6.210997 ] } }
,
{ "type": "Feature", "properties": { "osm_id": "318076629", "lastchange": "", "code": "2110", "fclass": "hospital", "name": "RS Tarakan", "name_en": "", "source": "" }, "geometry": { "type": "Point", "coordinates": [ 106.810359, -6.171478 ] } }
,
{ "type": "Feature", "properties": { "osm_id": "318175741", "lastchange": "", "code": "2110", "fclass": "hospital", "name": "RS Budi Kemuliaan", "name_en": "", "source": "" }, "geometry": { "type": "Point", "coordinates": [ 106.818286, -6.180497 ] } }
,
{ "type": "Feature", "properties": { "osm_id": "318693068", "lastchange": "", "code": "2110", "fclass": "hospital", "name": "RSU Tangerang", "name_en": "", "source": "" }, "geometry": { "type": "Point", "coordinates": [ 106.636706, -6.170082 ] } }
,
{ "type": "Feature", "properties": { "osm_id": "318702081", "lastchange": "", "code": "2110", "fclass": "hospital", "name": "RSJ Grogol", "name_en": "", "source": "" }, "geometry": { "type": "Point", "coordinates": [ 106.787928, -6.162713 ] } }
,
{ "type": "Feature", "properties": { "osm_id": "319706077", "lastchange": "", "code": "2110", "fclass": "hospital", "name": "RSAU Dr Salamun", "name_en": "", "source": "" }, "geometry": { "type": "Point", "coordinates": [ 107.604813, -6.864315 ] } }
,
{ "type": "Feature", "properties": { "osm_id": "321545603", "lastchange": "", "code": "2110", "fclass": "hospital", "name": "Royal Taruma", "name_en": "", "source": "" }, "geometry": { "type": "Point", "coordinates": [ 106.785355, -6.166273 ] } }
,
{ "type": "Feature", "properties": { "osm_id": "322399331", "lastchange": "", "code": "2110", "fclass": "hospital", "name": "RS Atmajaya", "name_en": "", "source": "" }, "geometry": { "type": "Point", "coordinates": [ 106.792817, -6.126154 ] } }
,
{ "type": "Feature", "properties": { "osm_id": "328229518", "lastchange": "", "code": "2110", "fclass": "hospital", "name": "RS Islam Jakarta", "name_en": "", "source": "" }, "geometry": { "type": "Point", "coordinates": [ 106.871213, -6.171286 ] } }
,
{ "type": "Feature", "properties": { "osm_id": "330062766", "lastchange": "", "code": "2110", "fclass": "hospital", "name": "Lab. Klinik Semangat, T. Tinggi", "name_en": "", "source": "" }, "geometry": { "type": "Point", "coordinates": [ 99.162303, 3.327765 ] } }
,
{ "type": "Feature", "properties": { "osm_id": "330062883", "lastchange": "", "code": "2110", "fclass": "hospital", "name": "Lab. Klinik Gatot Subroto", "name_en": "", "source": "" }, "geometry": { "type": "Point", "coordinates": [ 99.159436, 3.329848 ] } }
,
{ "type": "Feature", "properties": { "osm_id": "330062904", "lastchange": "", "code": "2110", "fclass": "hospital", "name": "Lab. Klinik Prodia, T. Tinggi", "name_en": "", "source": "" }, "geometry": { "type": "Point", "coordinates": [ 99.161033, 3.333009 ] } }
,
{ "type": "Feature", "properties": { "osm_id": "330063205", "lastchange": "", "code": "2110", "fclass": "hospital", "name": "RS Umum, T. Tinggi", "name_en": "", "source": "" }, "geometry": { "type": "Point", "coordinates": [ 99.155677, 3.330036 ] } }
,
{ "type": "Feature", "properties": { "osm_id": "347198105", "lastchange": "", "code": "2110", "fclass": "hospital", "name": "RS Pluit", "name_en": "", "source": "" }, "geometry": { "type": "Point", "coordinates": [ 106.799512, -6.125727 ] } }
,
{ "type": "Feature", "properties": { "osm_id": "353176652", "lastchange": "", "code": "2110", "fclass": "hospital", "name": "RS Fatmawati", "name_en": "", "source": "" }, "geometry": { "type": "Point", "coordinates": [ 106.796851, -6.293992 ] } }
,
{ "type": "Feature", "properties": { "osm_id": "356145261", "lastchange": "", "code": "2110", "fclass": "hospital", "name": "Brawijaya Women and Children Hospital", "name_en": "", "source": "" }, "geometry": { "type": "Point", "coordinates": [ 106.807557, -6.257474 ] } }
,
{ "type": "Feature", "properties": { "osm_id": "359886493", "lastchange": "", "code": "2110", "fclass": "hospital", "name": "Premier Hospital", "name_en": "", "source": "" }, "geometry": { "type": "Point", "coordinates": [ 106.724097, -6.276094 ] } }
,
{ "type": "Feature", "properties": { "osm_id": "370801706", "lastchange": "", "code": "2110", "fclass": "hospital", "name": "RS Pantai Indah Kapuk", "name_en": "", "source": "" }, "geometry": { "type": "Point", "coordinates": [ 106.752616, -6.111944 ] } }
,
{ "type": "Feature", "properties": { "osm_id": "373132422", "lastchange": "", "code": "2110", "fclass": "hospital", "name": "RS Koja", "name_en": "", "source": "" }, "geometry": { "type": "Point", "coordinates": [ 106.900202, -6.109011 ] } }
,
{ "type": "Feature", "properties": { "osm_id": "393097996", "lastchange": "", "code": "2110", "fclass": "hospital", "name": "RS Ancol", "name_en": "", "source": "" }, "geometry": { "type": "Point", "coordinates": [ 106.852491, -6.129247 ] } }
,
{ "type": "Feature", "properties": { "osm_id": "396646055", "lastchange": "", "code": "2110", "fclass": "hospital", "name": "RS Sulianto Saroso", "name_en": "", "source": "" }, "geometry": { "type": "Point", "coordinates": [ 106.862039, -6.130431 ] } }
,
{ "type": "Feature", "properties": { "osm_id": "401426991", "lastchange": "", "code": "2110", "fclass": "hospital", "name": "RS Hermina", "name_en": "", "source": "" }, "geometry": { "type": "Point", "coordinates": [ 106.861160, -6.145558 ] } }
,
{ "type": "Feature", "properties": { "osm_id": "408210669", "lastchange": "", "code": "2110", "fclass": "hospital", "name": "RS Tugu", "name_en": "", "source": "" }, "geometry": { "type": "Point", "coordinates": [ 106.917765, -6.124788 ] } }
,
{ "type": "Feature", "properties": { "osm_id": "409469894", "lastchange": "", "code": "2110", "fclass": "hospital", "name": "RS Hermina", "name_en": "", "source": "" }, "geometry": { "type": "Point", "coordinates": [ 106.712351, -6.152838 ] } }
,
{ "type": "Feature", "properties": { "osm_id": "412341169", "lastchange": "", "code": "2110", "fclass": "hospital", "name": "", "name_en": "", "source": "" }, "geometry": { "type": "Point", "coordinates": [ 112.746155, -7.275007 ] } }
,
{ "type": "Feature", "properties": { "osm_id": "429250405", "lastchange": "", "code": "2110", "fclass": "hospital", "name": "Rumah Sakit Negara", "name_en": "", "source": "" }, "geometry": { "type": "Point", "coordinates": [ 114.621454, -8.354431 ] } }
,
{ "type": "Feature", "properties": { "osm_id": "430223029", "lastchange": "", "code": "2110", "fclass": "hospital", "name": "Sanglah Public Hospital", "name_en": "", "source": "" }, "geometry": { "type": "Point", "coordinates": [ 115.212036, -8.675258 ] } }
,
{ "type": "Feature", "properties": { "osm_id": "430245349", "lastchange": "", "code": "2110", "fclass": "hospital", "name": "Rumah Sakit Udayana", "name_en": "", "source": "" }, "geometry": { "type": "Point", "coordinates": [ 115.218832, -8.663485 ] } }
,
{ "type": "Feature", "properties": { "osm_id": "462093788", "lastchange": "", "code": "2110", "fclass": "hospital", "name": "Pekanbaru Medical Centre", "name_en": "", "source": "" }, "geometry": { "type": "Point", "coordinates": [ 101.462323, 0.508598 ] } }
,
{ "type": "Feature", "properties": { "osm_id": "462098398", "lastchange": "", "code": "2110", "fclass": "hospital", "name": "Awal Bros", "name_en": "", "source": "" }, "geometry": { "type": "Point", "coordinates": [ 101.456176, 0.496931 ] } }
,
{ "type": "Feature", "properties": { "osm_id": "465134541", "lastchange": "", "code": "2110", "fclass": "hospital", "name": "Santa Maria Hospital", "name_en": "", "source": "" }, "geometry": { "type": "Point", "coordinates": [ 101.441889, 0.526902 ] } }
,
{ "type": "Feature", "properties": { "osm_id": "473366924", "lastchange": "", "code": "2110", "fclass": "hospital", "name": "Bogor Medical Centre (BMC)", "name_en": "", "source": "" }, "geometry": { "type": "Point", "coordinates": [ 106.811065, -6.608075 ] } }
,
{ "type": "Feature", "properties": { "osm_id": "473368141", "lastchange": "", "code": "2110", "fclass": "hospital", "name": "RS Azra", "name_en": "", "source": "" }, "geometry": { "type": "Point", "coordinates": [ 106.807525, -6.579398 ] } }
,
{ "type": "Feature", "properties": { "osm_id": "479732486", "lastchange": "", "code": "2110", "fclass": "hospital", "name": "Paru paru Cipaganti", "name_en": "", "source": "" }, "geometry": { "type": "Point", "coordinates": [ 107.606486, -6.877787 ] } }
,
{ "type": "Feature", "properties": { "osm_id": "491079344", "lastchange": "", "code": "2110", "fclass": "hospital", "name": "RS Muhammadiyah", "name_en": "", "source": "" }, "geometry": { "type": "Point", "coordinates": [ 118.736118, -8.454529 ] } }
,
{ "type": "Feature", "properties": { "osm_id": "493785747", "lastchange": "", "code": "2110", "fclass": "hospital", "name": "Bethesda", "name_en": "", "source": "" }, "geometry": { "type": "Point", "coordinates": [ 128.008018, 1.727136 ] } }
,
{ "type": "Feature", "properties": { "osm_id": "504912713", "lastchange": "", "code": "2110", "fclass": "hospital", "name": "RS Mitra Keluarga", "name_en": "", "source": "" }, "geometry": { "type": "Point", "coordinates": [ 106.897147, -6.151852 ] } }
,
{ "type": "Feature", "properties": { "osm_id": "521568349", "lastchange": "", "code": "2110", "fclass": "hospital", "name": "Wangaya Hospital", "name_en": "", "source": "" }, "geometry": { "type": "Point", "coordinates": [ 115.213220, -8.648369 ] } }
,
{ "type": "Feature", "properties": { "osm_id": "523569702", "lastchange": "", "code": "2110", "fclass": "hospital", "name": "Rumah Sakit Budi Kemuliaan", "name_en": "", "source": "" }, "geometry": { "type": "Point", "coordinates": [ 104.018548, 1.147636 ] } }
,
{ "type": "Feature", "properties": { "osm_id": "523763391", "lastchange": "", "code": "2110", "fclass": "hospital", "name": "Rumah Sakit Awal Bros.", "name_en": "", "source": "" }, "geometry": { "type": "Point", "coordinates": [ 104.016040, 1.124019 ] } }
,
{ "type": "Feature", "properties": { "osm_id": "542894909", "lastchange": "", "code": "2110", "fclass": "hospital", "name": "Rumah Sakit Harapan Bunda", "name_en": "", "source": "" }, "geometry": { "type": "Point", "coordinates": [ 104.016539, 1.147699 ] } }
,
{ "type": "Feature", "properties": { "osm_id": "577453624", "lastchange": "", "code": "2110", "fclass": "hospital", "name": "RSU Pirngadi", "name_en": "", "source": "" }, "geometry": { "type": "Point", "coordinates": [ 98.687728, 3.598103 ] } }
,
{ "type": "Feature", "properties": { "osm_id": "577454865", "lastchange": "", "code": "2110", "fclass": "hospital", "name": "Puskesmas", "name_en": "", "source": "" }, "geometry": { "type": "Point", "coordinates": [ 98.690098, 3.532986 ] } }
,
{ "type": "Feature", "properties": { "osm_id": "596906950", "lastchange": "", "code": "2110", "fclass": "hospital", "name": "", "name_en": "", "source": "" }, "geometry": { "type": "Point", "coordinates": [ 107.140844, -6.810307 ] } }
,
{ "type": "Feature", "properties": { "osm_id": "600488283", "lastchange": "", "code": "2110", "fclass": "hospital", "name": "Kasih Ibu Hospital", "name_en": "", "source": "" }, "geometry": { "type": "Point", "coordinates": [ 115.175918, -8.760323 ] } }
,
{ "type": "Feature", "properties": { "osm_id": "660841687", "lastchange": "", "code": "2110", "fclass": "hospital", "name": "Rumah Sakit Adi Husada", "name_en": "", "source": "" }, "geometry": { "type": "Point", "coordinates": [ 112.745812, -7.251519 ] } }
,
{ "type": "Feature", "properties": { "osm_id": "692410749", "lastchange": "", "code": "2110", "fclass": "hospital", "name": "RS Kasih Ibu", "name_en": "", "source": "" }, "geometry": { "type": "Point", "coordinates": [ 110.801998, -7.563226 ] } }
,
{ "type": "Feature", "properties": { "osm_id": "692414966", "lastchange": "", "code": "2110", "fclass": "hospital", "name": "RS DKT", "name_en": "", "source": "" }, "geometry": { "type": "Point", "coordinates": [ 110.805350, -7.565939 ] } }
,
{ "type": "Feature", "properties": { "osm_id": "692419831", "lastchange": "", "code": "2110", "fclass": "hospital", "name": "Dr. Oen Hospital", "name_en": "", "source": "" }, "geometry": { "type": "Point", "coordinates": [ 110.836816, -7.558416 ] } }
,
{ "type": "Feature", "properties": { "osm_id": "700645247", "lastchange": "", "code": "2110", "fclass": "hospital", "name": "RB Aini", "name_en": "", "source": "" }, "geometry": { "type": "Point", "coordinates": [ 103.977722, 1.052005 ] } }
,
{ "type": "Feature", "properties": { "osm_id": "701966336", "lastchange": "", "code": "2110", "fclass": "hospital", "name": "Rsb Graga Hermina", "name_en": "", "source": "" }, "geometry": { "type": "Point", "coordinates": [ 103.973770, 1.045250 ] } }
,
{ "type": "Feature", "properties": { "osm_id": "702021818", "lastchange": "", "code": "2110", "fclass": "hospital", "name": "Puskesmas Batu Aji", "name_en": "", "source": "" }, "geometry": { "type": "Point", "coordinates": [ 103.978300, 1.054520 ] } }
,
{ "type": "Feature", "properties": { "osm_id": "702327648", "lastchange": "", "code": "2110", "fclass": "hospital", "name": "RSUD", "name_en": "", "source": "" }, "geometry": { "type": "Point", "coordinates": [ 103.942640, 1.047630 ] } }
,
{ "type": "Feature", "properties": { "osm_id": "702355083", "lastchange": "", "code": "2110", "fclass": "hospital", "name": "RSOB", "name_en": "", "source": "" }, "geometry": { "type": "Point", "coordinates": [ 103.930960, 1.129700 ] } }
,
{ "type": "Feature", "properties": { "osm_id": "702672836", "lastchange": "", "code": "2110", "fclass": "hospital", "name": "Clinic Rsob", "name_en": "", "source": "" }, "geometry": { "type": "Point", "coordinates": [ 104.016500, 1.132090 ] } }
,
{ "type": "Feature", "properties": { "osm_id": "702672880", "lastchange": "", "code": "2110", "fclass": "hospital", "name": "RS Ibu Dan Anak Permata Hati", "name_en": "", "source": "" }, "geometry": { "type": "Point", "coordinates": [ 104.015760, 1.132750 ] } }
,
{ "type": "Feature", "properties": { "osm_id": "707801374", "lastchange": "", "code": "2110", "fclass": "hospital", "name": "Medika Hospital BSD", "name_en": "", "source": "" }, "geometry": { "type": "Point", "coordinates": [ 106.667566, -6.284313 ] } }
,
{ "type": "Feature", "properties": { "osm_id": "707810003", "lastchange": "", "code": "2110", "fclass": "hospital", "name": "Casa Medica", "name_en": "", "source": "" }, "geometry": { "type": "Point", "coordinates": [ 104.025340, 1.073680 ] } }
,
{ "type": "Feature", "properties": { "osm_id": "712797899", "lastchange": "", "code": "2110", "fclass": "hospital", "name": "GRESTELINA", "name_en": "", "source": "" }, "geometry": { "type": "Point", "coordinates": [ 119.445247, -5.163287 ] } }
,
{ "type": "Feature", "properties": { "osm_id": "719066142", "lastchange": "", "code": "2110", "fclass": "hospital", "name": "Rs Bersalin Mitra Bunda", "name_en": "", "source": "" }, "geometry": { "type": "Point", "coordinates": [ 104.004690, 1.132260 ] } }
,
{ "type": "Feature", "properties": { "osm_id": "736599362", "lastchange": "", "code": "2110", "fclass": "hospital", "name": "Batam Medical Centre", "name_en": "", "source": "" }, "geometry": { "type": "Point", "coordinates": [ 104.015100, 1.138930 ] } }
,
{ "type": "Feature", "properties": { "osm_id": "736609236", "lastchange": "", "code": "2110", "fclass": "hospital", "name": "Clinic Bunda Baloi", "name_en": "", "source": "" }, "geometry": { "type": "Point", "coordinates": [ 104.007040, 1.131830 ] } }
,
{ "type": "Feature", "properties": { "osm_id": "736609369", "lastchange": "", "code": "2110", "fclass": "hospital", "name": "RS Elisabeth", "name_en": "", "source": "" }, "geometry": { "type": "Point", "coordinates": [ 104.015080, 1.135750 ] } }
,
{ "type": "Feature", "properties": { "osm_id": "736618330", "lastchange": "", "code": "2110", "fclass": "hospital", "name": "Puskesmas Lubuk Baja", "name_en": "", "source": "" }, "geometry": { "type": "Point", "coordinates": [ 104.001690, 1.143890 ] } }
,
{ "type": "Feature", "properties": { "osm_id": "736628833", "lastchange": "", "code": "2110", "fclass": "hospital", "name": "Hospital (Rs Budi Kemuliaan", "name_en": "", "source": "" }, "geometry": { "type": "Point", "coordinates": [ 104.018130, 1.147510 ] } }
,
{ "type": "Feature", "properties": { "osm_id": "736645445", "lastchange": "", "code": "2110", "fclass": "hospital", "name": "Klinik Bersalin Elizabeth", "name_en": "", "source": "" }, "geometry": { "type": "Point", "coordinates": [ 104.022140, 1.184230 ] } }
,
{ "type": "Feature", "properties": { "osm_id": "736645876", "lastchange": "", "code": "2110", "fclass": "hospital", "name": "Puskesmas T.Sengkuang", "name_en": "", "source": "" }, "geometry": { "type": "Point", "coordinates": [ 104.014670, 1.183430 ] } }
,
{ "type": "Feature", "properties": { "osm_id": "772455760", "lastchange": "", "code": "2110", "fclass": "hospital", "name": "Jogja International Hospital", "name_en": "", "source": "" }, "geometry": { "type": "Point", "coordinates": [ 110.402577, -7.758377 ] } }
,
{ "type": "Feature", "properties": { "osm_id": "799396933", "lastchange": "", "code": "2110", "fclass": "hospital", "name": "Eka Hospital", "name_en": "", "source": "" }, "geometry": { "type": "Point", "coordinates": [ 101.420046, 0.482877 ] } }
,
{ "type": "Feature", "properties": { "osm_id": "829776212", "lastchange": "", "code": "2110", "fclass": "hospital", "name": "Prima Medika", "name_en": "", "source": "" }, "geometry": { "type": "Point", "coordinates": [ 115.212838, -8.678325 ] } }
,
{ "type": "Feature", "properties": { "osm_id": "829776970", "lastchange": "", "code": "2110", "fclass": "hospital", "name": "Kasih Ibu", "name_en": "", "source": "" }, "geometry": { "type": "Point", "coordinates": [ 115.205682, -8.677476 ] } }
,
{ "type": "Feature", "properties": { "osm_id": "838266503", "lastchange": "", "code": "2110", "fclass": "hospital", "name": "RSU Tabanan", "name_en": "", "source": "" }, "geometry": { "type": "Point", "coordinates": [ 115.131984, -8.539008 ] } }
,
{ "type": "Feature", "properties": { "osm_id": "839653491", "lastchange": "", "code": "2110", "fclass": "hospital", "name": "Rumah Sakit BUnda", "name_en": "", "source": "" }, "geometry": { "type": "Point", "coordinates": [ 112.650204, -7.251793 ] } }
,
{ "type": "Feature", "properties": { "osm_id": "839668721", "lastchange": "", "code": "2110", "fclass": "hospital", "name": "Medical Centre ITS", "name_en": "", "source": "" }, "geometry": { "type": "Point", "coordinates": [ 112.792825, -7.290335 ] } }
,
{ "type": "Feature", "properties": { "osm_id": "897245049", "lastchange": "", "code": "2110", "fclass": "hospital", "name": "Lempuyangwangi", "name_en": "", "source": "" }, "geometry": { "type": "Point", "coordinates": [ 110.373186, -7.796245 ] } }
,
{ "type": "Feature", "properties": { "osm_id": "902927483", "lastchange": "", "code": "2110", "fclass": "hospital", "name": "RSB Nuruddiniah", "name_en": "", "source": "" }, "geometry": { "type": "Point", "coordinates": [ 104.027670, 1.142770 ] } }
,
{ "type": "Feature", "properties": { "osm_id": "902955280", "lastchange": "", "code": "2110", "fclass": "hospital", "name": "Puskesmas Sungai Panas", "name_en": "", "source": "" }, "geometry": { "type": "Point", "coordinates": [ 104.027830, 1.145500 ] } }
,
{ "type": "Feature", "properties": { "osm_id": "903048758", "lastchange": "", "code": "2110", "fclass": "hospital", "name": "RSB Budi Rosari", "name_en": "", "source": "" }, "geometry": { "type": "Point", "coordinates": [ 104.030570, 1.158350 ] } }
,
{ "type": "Feature", "properties": { "osm_id": "939067188", "lastchange": "", "code": "2110", "fclass": "hospital", "name": "Dokter Praktek", "name_en": "", "source": "" }, "geometry": { "type": "Point", "coordinates": [ 116.838116, -1.254897 ] } }
,
{ "type": "Feature", "properties": { "osm_id": "986304105", "lastchange": "", "code": "2110", "fclass": "hospital", "name": "", "name_en": "", "source": "" }, "geometry": { "type": "Point", "coordinates": [ 124.843230, 1.475206 ] } }
,
{ "type": "Feature", "properties": { "osm_id": "986304109", "lastchange": "", "code": "2110", "fclass": "hospital", "name": "Ratumbuysang", "name_en": "", "source": "" }, "geometry": { "type": "Point", "coordinates": [ 124.830755, 1.462967 ] } }
,
{ "type": "Feature", "properties": { "osm_id": "986319614", "lastchange": "", "code": "2110", "fclass": "hospital", "name": "Rumah Sakit Bethesda", "name_en": "", "source": "" }, "geometry": { "type": "Point", "coordinates": [ 124.838875, 1.327081 ] } }
,
{ "type": "Feature", "properties": { "osm_id": "1006928923", "lastchange": "", "code": "2110", "fclass": "hospital", "name": "Rumah Sakit Cinere", "name_en": "", "source": "" }, "geometry": { "type": "Point", "coordinates": [ 106.782654, -6.321849 ] } }
,
{ "type": "Feature", "properties": { "osm_id": "1014181576", "lastchange": "", "code": "2110", "fclass": "hospital", "name": "RS Salak", "name_en": "", "source": "" }, "geometry": { "type": "Point", "coordinates": [ 106.797453, -6.591785 ] } }
,
{ "type": "Feature", "properties": { "osm_id": "1014201025", "lastchange": "", "code": "2110", "fclass": "hospital", "name": "RS Karya Bhakti", "name_en": "", "source": "" }, "geometry": { "type": "Point", "coordinates": [ 106.778020, -6.580015 ] } }
,
{ "type": "Feature", "properties": { "osm_id": "1067112056", "lastchange": "", "code": "2110", "fclass": "hospital", "name": "Klinik Putu Manuaba", "name_en": "", "source": "" }, "geometry": { "type": "Point", "coordinates": [ 115.167952, -8.736851 ] } }
,
{ "type": "Feature", "properties": { "osm_id": "1067139670", "lastchange": "", "code": "2110", "fclass": "hospital", "name": "RSU Graha Asih", "name_en": "", "source": "" }, "geometry": { "type": "Point", "coordinates": [ 115.254085, -8.659164 ] } }
,
{ "type": "Feature", "properties": { "osm_id": "1067142504", "lastchange": "", "code": "2110", "fclass": "hospital", "name": "RSU Sari Darma", "name_en": "", "source": "" }, "geometry": { "type": "Point", "coordinates": [ 115.212138, -8.670553 ] } }
,
{ "type": "Feature", "properties": { "osm_id": "1077157048", "lastchange": "", "code": "2110", "fclass": "hospital", "name": "RSUD Cilacap", "name_en": "", "source": "" }, "geometry": { "type": "Point", "coordinates": [ 109.015834, -7.717320 ] } }
,
{ "type": "Feature", "properties": { "osm_id": "1080499063", "lastchange": "", "code": "2110", "fclass": "hospital", "name": "Rumah Sakit Umum Surya Husada", "name_en": "", "source": "" }, "geometry": { "type": "Point", "coordinates": [ 115.213250, -8.677901 ] } }
,
{ "type": "Feature", "properties": { "osm_id": "1080500247", "lastchange": "", "code": "2110", "fclass": "hospital", "name": "Rumah Sakit Umum Darma Husada", "name_en": "", "source": "" }, "geometry": { "type": "Point", "coordinates": [ 115.215428, -8.672991 ] } }
,
{ "type": "Feature", "properties": { "osm_id": "1170849783", "lastchange": "", "code": "2110", "fclass": "hospital", "name": "Klinik UIN Jakarta", "name_en": "", "source": "" }, "geometry": { "type": "Point", "coordinates": [ 106.756424, -6.307798 ] } }
,
{ "type": "Feature", "properties": { "osm_id": "1219240405", "lastchange": "", "code": "2110", "fclass": "hospital", "name": "RUMAH SAKIT UMUM DAERAH SYEH YUSUF", "name_en": "", "source": "" }, "geometry": { "type": "Point", "coordinates": [ 119.462982, -5.210579 ] } }
,
{ "type": "Feature", "properties": { "osm_id": "1219240962", "lastchange": "", "code": "2110", "fclass": "hospital", "name": "PUSKESMAS SUNGGUMINASA", "name_en": "", "source": "" }, "geometry": { "type": "Point", "coordinates": [ 119.451331, -5.202913 ] } }
,
{ "type": "Feature", "properties": { "osm_id": "1221305943", "lastchange": "", "code": "2110", "fclass": "hospital", "name": "PUSTU\/PUSKESMAS PEMBANTU", "name_en": "", "source": "" }, "geometry": { "type": "Point", "coordinates": [ 119.460290, -5.272084 ] } }
,
{ "type": "Feature", "properties": { "osm_id": "1230268719", "lastchange": "", "code": "2110", "fclass": "hospital", "name": "RS Umum", "name_en": "", "source": "" }, "geometry": { "type": "Point", "coordinates": [ 116.868382, -1.224937 ] } }
,
{ "type": "Feature", "properties": { "osm_id": "1248466779", "lastchange": "", "code": "2110", "fclass": "hospital", "name": "Kuala Kencana Hospital", "name_en": "", "source": "" }, "geometry": { "type": "Point", "coordinates": [ 136.863860, -4.401770 ] } }
,
{ "type": "Feature", "properties": { "osm_id": "1256935222", "lastchange": "", "code": "2110", "fclass": "hospital", "name": "RS", "name_en": "", "source": "" }, "geometry": { "type": "Point", "coordinates": [ 106.744359, -6.324816 ] } }
,
{ "type": "Feature", "properties": { "osm_id": "1256938453", "lastchange": "", "code": "2110", "fclass": "hospital", "name": "Klinik Mama", "name_en": "", "source": "" }, "geometry": { "type": "Point", "coordinates": [ 106.746558, -6.321383 ] } }
,
{ "type": "Feature", "properties": { "osm_id": "1256957650", "lastchange": "", "code": "2110", "fclass": "hospital", "name": "Puskesmas Ciputat", "name_en": "", "source": "" }, "geometry": { "type": "Point", "coordinates": [ 106.747169, -6.309944 ] } }
,
{ "type": "Feature", "properties": { "osm_id": "1261568290", "lastchange": "", "code": "2110", "fclass": "hospital", "name": "RSUD Papua", "name_en": "", "source": "" }, "geometry": { "type": "Point", "coordinates": [ 140.710127, -2.534619 ] } }
,
{ "type": "Feature", "properties": { "osm_id": "1266919811", "lastchange": "", "code": "2110", "fclass": "hospital", "name": "Puskesmas Bolo Bima", "name_en": "", "source": "" }, "geometry": { "type": "Point", "coordinates": [ 118.616082, -8.504308 ] } }
,
{ "type": "Feature", "properties": { "osm_id": "1270295207", "lastchange": "", "code": "2110", "fclass": "hospital", "name": "RSU Dr. Soedono", "name_en": "", "source": "" }, "geometry": { "type": "Point", "coordinates": [ 111.524488, -7.626519 ] } }
,
{ "type": "Feature", "properties": { "osm_id": "1271084213", "lastchange": "", "code": "2110", "fclass": "hospital", "name": "PUSTU Desa Garassikang", "name_en": "", "source": "" }, "geometry": { "type": "Point", "coordinates": [ 119.539610, -5.580567 ] } }
,
{ "type": "Feature", "properties": { "osm_id": "1273023778", "lastchange": "", "code": "2110", "fclass": "hospital", "name": "Pustu Desa Maero", "name_en": "", "source": "" }, "geometry": { "type": "Point", "coordinates": [ 119.668346, -5.592545 ] } }
,
{ "type": "Feature", "properties": { "osm_id": "1285642634", "lastchange": "", "code": "2110", "fclass": "hospital", "name": "Rumah Sakit Siloam Lippo Cikarang", "name_en": "", "source": "" }, "geometry": { "type": "Point", "coordinates": [ 107.134782, -6.331435 ] } }
,
{ "type": "Feature", "properties": { "osm_id": "1286233091", "lastchange": "", "code": "2110", "fclass": "hospital", "name": "Puskesmas", "name_en": "", "source": "" }, "geometry": { "type": "Point", "coordinates": [ 122.629084, -5.407980 ] } }
,
{ "type": "Feature", "properties": { "osm_id": "1287169278", "lastchange": "", "code": "2110", "fclass": "hospital", "name": "Puskesmas Kampeonaho", "name_en": "", "source": "" }, "geometry": { "type": "Point", "coordinates": [ 122.694116, -5.340744 ] } }
,
{ "type": "Feature", "properties": { "osm_id": "1287192610", "lastchange": "", "code": "2110", "fclass": "hospital", "name": "Pusat Kesehatan Mahasiswa", "name_en": "", "source": "" }, "geometry": { "type": "Point", "coordinates": [ 106.829046, -6.372180 ] } }
,
{ "type": "Feature", "properties": { "osm_id": "1288737459", "lastchange": "", "code": "2110", "fclass": "hospital", "name": "Puskesmas", "name_en": "", "source": "" }, "geometry": { "type": "Point", "coordinates": [ 123.062484, -4.673491 ] } }
,
{ "type": "Feature", "properties": { "osm_id": "1290243060", "lastchange": "", "code": "2110", "fclass": "hospital", "name": "", "name_en": "", "source": "" }, "geometry": { "type": "Point", "coordinates": [ 116.734714, -1.308809 ] } }
,
{ "type": "Feature", "properties": { "osm_id": "1296276845", "lastchange": "", "code": "2110", "fclass": "hospital", "name": "RS. Bakti Wara", "name_en": "", "source": "" }, "geometry": { "type": "Point", "coordinates": [ 106.097940, -2.143674 ] } }
,
{ "type": "Feature", "properties": { "osm_id": "1297301876", "lastchange": "", "code": "2110", "fclass": "hospital", "name": "Rs o", "name_en": "", "source": "" }, "geometry": { "type": "Point", "coordinates": [ 128.180732, -3.696952 ] } }
,
{ "type": "Feature", "properties": { "osm_id": "1314024777", "lastchange": "", "code": "2110", "fclass": "hospital", "name": "National Laboratory", "name_en": "", "source": "" }, "geometry": { "type": "Point", "coordinates": [ 125.594351, -8.554269 ] } }
,
{ "type": "Feature", "properties": { "osm_id": "1323278407", "lastchange": "", "code": "2110", "fclass": "hospital", "name": "Rumah Sakit Bakti Yudha", "name_en": "", "source": "" }, "geometry": { "type": "Point", "coordinates": [ 106.806343, -6.397755 ] } }
,
{ "type": "Feature", "properties": { "osm_id": "1323286961", "lastchange": "", "code": "2110", "fclass": "hospital", "name": "RS Sentra Medika", "name_en": "", "source": "" }, "geometry": { "type": "Point", "coordinates": [ 106.865472, -6.390948 ] } }
,
{ "type": "Feature", "properties": { "osm_id": "1323313064", "lastchange": "", "code": "2110", "fclass": "hospital", "name": "RS Hermina", "name_en": "", "source": "" }, "geometry": { "type": "Point", "coordinates": [ 106.825389, -6.399637 ] } }
,
{ "type": "Feature", "properties": { "osm_id": "1327775773", "lastchange": "", "code": "2110", "fclass": "hospital", "name": "RS. Bhakti Timah", "name_en": "", "source": "" }, "geometry": { "type": "Point", "coordinates": [ 106.109378, -2.114225 ] } }
,
{ "type": "Feature", "properties": { "osm_id": "1338456061", "lastchange": "", "code": "2110", "fclass": "hospital", "name": "RS Marzoeki Mahdi", "name_en": "", "source": "" }, "geometry": { "type": "Point", "coordinates": [ 106.780505, -6.582266 ] } }
,
{ "type": "Feature", "properties": { "osm_id": "1340370919", "lastchange": "", "code": "2110", "fclass": "hospital", "name": "Puskesmas Simpang Rimba", "name_en": "", "source": "" }, "geometry": { "type": "Point", "coordinates": [ 106.001830, -2.560310 ] } }
,
{ "type": "Feature", "properties": { "osm_id": "1340839724", "lastchange": "", "code": "2110", "fclass": "hospital", "name": "Mitra Keluarga Hospital", "name_en": "", "source": "" }, "geometry": { "type": "Point", "coordinates": [ 112.691163, -7.266634 ] } }
,
{ "type": "Feature", "properties": { "osm_id": "1342492354", "lastchange": "", "code": "2110", "fclass": "hospital", "name": "RS Putri", "name_en": "", "source": "" }, "geometry": { "type": "Point", "coordinates": [ 112.782650, -7.290727 ] } }
,
{ "type": "Feature", "properties": { "osm_id": "1342492357", "lastchange": "", "code": "2110", "fclass": "hospital", "name": "RS Haji", "name_en": "", "source": "" }, "geometry": { "type": "Point", "coordinates": [ 112.779774, -7.282932 ] } }
,
{ "type": "Feature", "properties": { "osm_id": "1342494375", "lastchange": "", "code": "2110", "fclass": "hospital", "name": "RS Dr Sutomo", "name_en": "", "source": "" }, "geometry": { "type": "Point", "coordinates": [ 112.759785, -7.266479 ] } }
,
{ "type": "Feature", "properties": { "osm_id": "1342944384", "lastchange": "", "code": "2110", "fclass": "hospital", "name": "Rumah Sakit Jiwa Pusat Bandung", "name_en": "", "source": "" }, "geometry": { "type": "Point", "coordinates": [ 107.611533, -6.906855 ] } }
,
{ "type": "Feature", "properties": { "osm_id": "1342944402", "lastchange": "", "code": "2110", "fclass": "hospital", "name": "Rumah Sakit Sariningsih", "name_en": "", "source": "" }, "geometry": { "type": "Point", "coordinates": [ 107.610945, -6.906846 ] } }
,
{ "type": "Feature", "properties": { "osm_id": "1342948126", "lastchange": "", "code": "2110", "fclass": "hospital", "name": "Rumah Sakit Khusus Gigi", "name_en": "", "source": "" }, "geometry": { "type": "Point", "coordinates": [ 107.614164, -6.906329 ] } }
,
{ "type": "Feature", "properties": { "osm_id": "1342948127", "lastchange": "", "code": "2110", "fclass": "hospital", "name": "Rumah Sakit Limijati", "name_en": "", "source": "" }, "geometry": { "type": "Point", "coordinates": [ 107.613674, -6.906392 ] } }
,
{ "type": "Feature", "properties": { "osm_id": "1342970054", "lastchange": "", "code": "2110", "fclass": "hospital", "name": "Rumah Sakit Emma Puradiredja", "name_en": "", "source": "" }, "geometry": { "type": "Point", "coordinates": [ 107.613649, -6.913247 ] } }
,
{ "type": "Feature", "properties": { "osm_id": "1342970056", "lastchange": "", "code": "2110", "fclass": "hospital", "name": "Rumah Sakit Palang Merah Indonesia Citarum", "name_en": "", "source": "" }, "geometry": { "type": "Point", "coordinates": [ 107.619612, -6.908817 ] } }
,
{ "type": "Feature", "properties": { "osm_id": "1343092357", "lastchange": "", "code": "2110", "fclass": "hospital", "name": "Rumah Sakit PGI Cikini", "name_en": "", "source": "" }, "geometry": { "type": "Point", "coordinates": [ 106.841873, -6.191820 ] } }
,
{ "type": "Feature", "properties": { "osm_id": "1346681071", "lastchange": "", "code": "2110", "fclass": "hospital", "name": "Puskesmas Asakota", "name_en": "", "source": "" }, "geometry": { "type": "Point", "coordinates": [ 118.732975, -8.449764 ] } }
,
{ "type": "Feature", "properties": { "osm_id": "1346718923", "lastchange": "", "code": "2110", "fclass": "hospital", "name": "Rumah Dokter", "name_en": "", "source": "" }, "geometry": { "type": "Point", "coordinates": [ 118.616262, -8.505235 ] } }
,
{ "type": "Feature", "properties": { "osm_id": "1347812452", "lastchange": "", "code": "2110", "fclass": "hospital", "name": "Dokter H. Sucipto", "name_en": "", "source": "" }, "geometry": { "type": "Point", "coordinates": [ 118.725836, -8.452681 ] } }
,
{ "type": "Feature", "properties": { "osm_id": "1348913488", "lastchange": "", "code": "2110", "fclass": "hospital", "name": "Puskesmas Tanjung Karang", "name_en": "", "source": "" }, "geometry": { "type": "Point", "coordinates": [ 116.083375, -8.600946 ] } }
,
{ "type": "Feature", "properties": { "osm_id": "1348937662", "lastchange": "", "code": "2110", "fclass": "hospital", "name": "Puskesmas Ampenan", "name_en": "", "source": "" }, "geometry": { "type": "Point", "coordinates": [ 116.076509, -8.570326 ] } }
,
{ "type": "Feature", "properties": { "osm_id": "1348940249", "lastchange": "", "code": "2110", "fclass": "hospital", "name": "RS Tripat", "name_en": "", "source": "" }, "geometry": { "type": "Point", "coordinates": [ 116.150503, -8.668709 ] } }
,
{ "type": "Feature", "properties": { "osm_id": "1349942858", "lastchange": "", "code": "2110", "fclass": "hospital", "name": "Rumah Sakit dr. Sardjito", "name_en": "", "source": "" }, "geometry": { "type": "Point", "coordinates": [ 110.372907, -7.768509 ] } }
,
{ "type": "Feature", "properties": { "osm_id": "1350020867", "lastchange": "", "code": "2110", "fclass": "hospital", "name": "Klinik Alumni Agung", "name_en": "", "source": "" }, "geometry": { "type": "Point", "coordinates": [ 116.116813, -8.589333 ] } }
,
{ "type": "Feature", "properties": { "osm_id": "1350046467", "lastchange": "", "code": "2110", "fclass": "hospital", "name": "Panti Rapih Hospital", "name_en": "", "source": "" }, "geometry": { "type": "Point", "coordinates": [ 110.376707, -7.776554 ] } }
,
{ "type": "Feature", "properties": { "osm_id": "1354094038", "lastchange": "", "code": "2110", "fclass": "hospital", "name": "RS Graha Permata Ibu", "name_en": "", "source": "" }, "geometry": { "type": "Point", "coordinates": [ 106.813453, -6.370668 ] } }
,
{ "type": "Feature", "properties": { "osm_id": "1354137371", "lastchange": "", "code": "2110", "fclass": "hospital", "name": "Klinik Bhakti Asih", "name_en": "", "source": "" }, "geometry": { "type": "Point", "coordinates": [ 106.814274, -6.394546 ] } }
,
{ "type": "Feature", "properties": { "osm_id": "1354148415", "lastchange": "", "code": "2110", "fclass": "hospital", "name": "Klinik Bahar Media", "name_en": "", "source": "" }, "geometry": { "type": "Point", "coordinates": [ 106.795890, -6.394631 ] } }
,
{ "type": "Feature", "properties": { "osm_id": "1354559394", "lastchange": "", "code": "2110", "fclass": "hospital", "name": "RS Kanker Dharmais", "name_en": "", "source": "" }, "geometry": { "type": "Point", "coordinates": [ 106.797997, -6.186689 ] } }
,
{ "type": "Feature", "properties": { "osm_id": "1357468165", "lastchange": "", "code": "2110", "fclass": "hospital", "name": "RSUD kab.Takalar", "name_en": "", "source": "" }, "geometry": { "type": "Point", "coordinates": [ 119.438024, -5.422372 ] } }
,
{ "type": "Feature", "properties": { "osm_id": "1358983655", "lastchange": "", "code": "2110", "fclass": "hospital", "name": "Puskesmas Pembantu", "name_en": "", "source": "" }, "geometry": { "type": "Point", "coordinates": [ 123.090660, -4.792199 ] } }
,
{ "type": "Feature", "properties": { "osm_id": "1359351480", "lastchange": "", "code": "2110", "fclass": "hospital", "name": "Puskesmas Dara", "name_en": "", "source": "" }, "geometry": { "type": "Point", "coordinates": [ 118.725288, -8.459394 ] } }
,
{ "type": "Feature", "properties": { "osm_id": "1360001968", "lastchange": "", "code": "2110", "fclass": "hospital", "name": "Puskesmas Mlati", "name_en": "", "source": "" }, "geometry": { "type": "Point", "coordinates": [ 110.328067, -7.732419 ] } }
,
{ "type": "Feature", "properties": { "osm_id": "1361376816", "lastchange": "", "code": "2110", "fclass": "hospital", "name": "RSU dr. Soetarto", "name_en": "", "source": "" }, "geometry": { "type": "Point", "coordinates": [ 110.376991, -7.786034 ] } }
,
{ "type": "Feature", "properties": { "osm_id": "1362228728", "lastchange": "", "code": "2110", "fclass": "hospital", "name": "Rumah Sakit Bakhti Medika", "name_en": "", "source": "" }, "geometry": { "type": "Point", "coordinates": [ 122.608154, -5.466770 ] } }
,
{ "type": "Feature", "properties": { "osm_id": "1363721357", "lastchange": "", "code": "2110", "fclass": "hospital", "name": "RS, Bantuan TNI AD", "name_en": "", "source": "" }, "geometry": { "type": "Point", "coordinates": [ 106.106750, -2.125427 ] } }
,
{ "type": "Feature", "properties": { "osm_id": "1364779891", "lastchange": "", "code": "2110", "fclass": "hospital", "name": "Rumah Sakit RK Charitas", "name_en": "", "source": "" }, "geometry": { "type": "Point", "coordinates": [ 104.753530, -2.976512 ] } }
,
{ "type": "Feature", "properties": { "osm_id": "1366465765", "lastchange": "", "code": "2110", "fclass": "hospital", "name": "Rumah Sakit Umum Pusat Dr. Muhammad Hussein", "name_en": "", "source": "" }, "geometry": { "type": "Point", "coordinates": [ 104.749804, -2.967204 ] } }
,
{ "type": "Feature", "properties": { "osm_id": "1367466068", "lastchange": "", "code": "2110", "fclass": "hospital", "name": "RSU IMANUEL", "name_en": "", "source": "" }, "geometry": { "type": "Point", "coordinates": [ 120.262062, -9.653444 ] } }
,
{ "type": "Feature", "properties": { "osm_id": "1370732548", "lastchange": "", "code": "2110", "fclass": "hospital", "name": "Puskesmas Tente", "name_en": "", "source": "" }, "geometry": { "type": "Point", "coordinates": [ 118.696598, -8.586967 ] } }
,
{ "type": "Feature", "properties": { "osm_id": "1374452556", "lastchange": "", "code": "2110", "fclass": "hospital", "name": "puskesmas kekalik", "name_en": "", "source": "" }, "geometry": { "type": "Point", "coordinates": [ 116.107377, -8.594917 ] } }
,
{ "type": "Feature", "properties": { "osm_id": "1376528746", "lastchange": "", "code": "2110", "fclass": "hospital", "name": "RS Ibnu Sina", "name_en": "", "source": "" }, "geometry": { "type": "Point", "coordinates": [ 100.367178, -0.921201 ] } }
,
{ "type": "Feature", "properties": { "osm_id": "1381753529", "lastchange": "", "code": "2110", "fclass": "hospital", "name": "Rumah Sakit Ginjal Nyonya Ra Habibie", "name_en": "", "source": "" }, "geometry": { "type": "Point", "coordinates": [ 107.620343, -6.885340 ] } }
,
{ "type": "Feature", "properties": { "osm_id": "1381753576", "lastchange": "", "code": "2110", "fclass": "hospital", "name": "Puskesmas Dago", "name_en": "", "source": "" }, "geometry": { "type": "Point", "coordinates": [ 107.618635, -6.876065 ] } }
,
{ "type": "Feature", "properties": { "osm_id": "1383067386", "lastchange": "", "code": "2110", "fclass": "hospital", "name": "Polindes Desa Lanci Jaya", "name_en": "", "source": "" }, "geometry": { "type": "Point", "coordinates": [ 118.316856, -8.498171 ] } }
,
{ "type": "Feature", "properties": { "osm_id": "1388222204", "lastchange": "", "code": "2110", "fclass": "hospital", "name": "Puskesmas Cikutra Lama", "name_en": "", "source": "" }, "geometry": { "type": "Point", "coordinates": [ 107.627240, -6.891327 ] } }
,
{ "type": "Feature", "properties": { "osm_id": "1388627440", "lastchange": "", "code": "2110", "fclass": "hospital", "name": "RS Puti Bungsu", "name_en": "", "source": "" }, "geometry": { "type": "Point", "coordinates": [ 100.367640, -0.945816 ] } }
,
{ "type": "Feature", "properties": { "osm_id": "1388627442", "lastchange": "", "code": "2110", "fclass": "hospital", "name": "RS Reksodiwiryo", "name_en": "", "source": "" }, "geometry": { "type": "Point", "coordinates": [ 100.372292, -0.950856 ] } }
,
{ "type": "Feature", "properties": { "osm_id": "1391993060", "lastchange": "", "code": "2110", "fclass": "hospital", "name": "Saiful Anwar Public Hospital", "name_en": "", "source": "" }, "geometry": { "type": "Point", "coordinates": [ 112.631771, -7.972834 ] } }
,
{ "type": "Feature", "properties": { "osm_id": "1403285674", "lastchange": "", "code": "2110", "fclass": "hospital", "name": "PUSKESMAS Taliwang", "name_en": "", "source": "" }, "geometry": { "type": "Point", "coordinates": [ 116.125906, -8.577991 ] } }
,
{ "type": "Feature", "properties": { "osm_id": "1405994349", "lastchange": "", "code": "2110", "fclass": "hospital", "name": "Puskesmas Wawo", "name_en": "", "source": "" }, "geometry": { "type": "Point", "coordinates": [ 118.843443, -8.520312 ] } }
,
{ "type": "Feature", "properties": { "osm_id": "1406027156", "lastchange": "", "code": "2110", "fclass": "hospital", "name": "Pustu Desa Kambilo", "name_en": "", "source": "" }, "geometry": { "type": "Point", "coordinates": [ 118.852203, -8.540201 ] } }
,
{ "type": "Feature", "properties": { "osm_id": "1407089357", "lastchange": "", "code": "2110", "fclass": "hospital", "name": "RS PKU Muhammadiyah", "name_en": "", "source": "" }, "geometry": { "type": "Point", "coordinates": [ 110.816639, -7.565401 ] } }
,
{ "type": "Feature", "properties": { "osm_id": "1411230921", "lastchange": "", "code": "2110", "fclass": "hospital", "name": "puskesmas kute", "name_en": "", "source": "" }, "geometry": { "type": "Point", "coordinates": [ 116.275054, -8.885162 ] } }
,
{ "type": "Feature", "properties": { "osm_id": "1411232667", "lastchange": "", "code": "2110", "fclass": "hospital", "name": "Puskesmas Janapria", "name_en": "", "source": "" }, "geometry": { "type": "Point", "coordinates": [ 116.399103, -8.693099 ] } }
,
{ "type": "Feature", "properties": { "osm_id": "1431948344", "lastchange": "", "code": "2110", "fclass": "hospital", "name": "", "name_en": "", "source": "" }, "geometry": { "type": "Point", "coordinates": [ 119.379713, -9.620358 ] } }
,
{ "type": "Feature", "properties": { "osm_id": "1433490895", "lastchange": "", "code": "2110", "fclass": "hospital", "name": "Rumah Sakit Karitas", "name_en": "", "source": "" }, "geometry": { "type": "Point", "coordinates": [ 119.228939, -9.444835 ] } }
,
{ "type": "Feature", "properties": { "osm_id": "1440386831", "lastchange": "", "code": "2110", "fclass": "hospital", "name": "RSUD Dr. Achmad Diponegoro", "name_en": "", "source": "" }, "geometry": { "type": "Point", "coordinates": [ 112.923530, 0.869501 ] } }
,
{ "type": "Feature", "properties": { "osm_id": "1450238977", "lastchange": "", "code": "2110", "fclass": "hospital", "name": "Puskesmas Jatinangor", "name_en": "", "source": "" }, "geometry": { "type": "Point", "coordinates": [ 107.777474, -6.932402 ] } }
,
{ "type": "Feature", "properties": { "osm_id": "1453634668", "lastchange": "", "code": "2110", "fclass": "hospital", "name": "", "name_en": "", "source": "" }, "geometry": { "type": "Point", "coordinates": [ 125.915800, -9.025595 ] } }
,
{ "type": "Feature", "properties": { "osm_id": "1456276771", "lastchange": "", "code": "2110", "fclass": "hospital", "name": "Bali Medical Center (BIMC)", "name_en": "", "source": "" }, "geometry": { "type": "Point", "coordinates": [ 115.184725, -8.721481 ] } }
,
{ "type": "Feature", "properties": { "osm_id": "1488013001", "lastchange": "", "code": "2110", "fclass": "hospital", "name": "W.Z. Johannes", "name_en": "", "source": "" }, "geometry": { "type": "Point", "coordinates": [ 123.585611, -10.168190 ] } }
,
{ "type": "Feature", "properties": { "osm_id": "1491017448", "lastchange": "", "code": "2110", "fclass": "hospital", "name": "RS Usada Insani", "name_en": "", "source": "" }, "geometry": { "type": "Point", "coordinates": [ 106.648287, -6.184061 ] } }
,
{ "type": "Feature", "properties": { "osm_id": "1502355790", "lastchange": "", "code": "2110", "fclass": "hospital", "name": "", "name_en": "", "source": "" }, "geometry": { "type": "Point", "coordinates": [ 123.463661, -10.155644 ] } }
,
{ "type": "Feature", "properties": { "osm_id": "1513938951", "lastchange": "", "code": "2110", "fclass": "hospital", "name": "Posyandu PNPM Melati", "name_en": "", "source": "" }, "geometry": { "type": "Point", "coordinates": [ 123.835760, -10.022297 ] } }
,
{ "type": "Feature", "properties": { "osm_id": "1517532151", "lastchange": "", "code": "2110", "fclass": "hospital", "name": "Prof. Dr. Soeparwi Veterinary Hospital", "name_en": "", "source": "" }, "geometry": { "type": "Point", "coordinates": [ 110.373811, -7.773864 ] } }
,
{ "type": "Feature", "properties": { "osm_id": "1523004676", "lastchange": "", "code": "2110", "fclass": "hospital", "name": "RUMAH SAKIT WALIABUKU", "name_en": "", "source": "" }, "geometry": { "type": "Point", "coordinates": [ 122.678591, -5.394280 ] } }
,
{ "type": "Feature", "properties": { "osm_id": "1543807251", "lastchange": "", "code": "2110", "fclass": "hospital", "name": "RSU Pandan Arang", "name_en": "", "source": "" }, "geometry": { "type": "Point", "coordinates": [ 110.590064, -7.533584 ] } }
,
{ "type": "Feature", "properties": { "osm_id": "1543932392", "lastchange": "", "code": "2110", "fclass": "hospital", "name": "RS.SANATORIUM", "name_en": "", "source": "" }, "geometry": { "type": "Point", "coordinates": [ 112.523327, -7.872315 ] } }
,
{ "type": "Feature", "properties": { "osm_id": "1545435096", "lastchange": "", "code": "2110", "fclass": "hospital", "name": "PKU Aisyiyah Boyolali", "name_en": "", "source": "" }, "geometry": { "type": "Point", "coordinates": [ 110.607015, -7.520142 ] } }
,
{ "type": "Feature", "properties": { "osm_id": "1570532173", "lastchange": "", "code": "2110", "fclass": "hospital", "name": "Puskesmas Birobuli", "name_en": "", "source": "" }, "geometry": { "type": "Point", "coordinates": [ 119.895096, -0.919304 ] } }
,
{ "type": "Feature", "properties": { "osm_id": "1570532192", "lastchange": "", "code": "2110", "fclass": "hospital", "name": "Rumah Sakit Al-khairaat", "name_en": "", "source": "" }, "geometry": { "type": "Point", "coordinates": [ 119.857587, -0.903308 ] } }
,
{ "type": "Feature", "properties": { "osm_id": "1570532193", "lastchange": "", "code": "2110", "fclass": "hospital", "name": "Rumah Sakit Annisa", "name_en": "", "source": "" }, "geometry": { "type": "Point", "coordinates": [ 119.884703, -0.902257 ] } }
,
{ "type": "Feature", "properties": { "osm_id": "1570532196", "lastchange": "", "code": "2110", "fclass": "hospital", "name": "Rumah Sakit Anutapura", "name_en": "", "source": "" }, "geometry": { "type": "Point", "coordinates": [ 119.848379, -0.900275 ] } }
,
{ "type": "Feature", "properties": { "osm_id": "1570532206", "lastchange": "", "code": "2110", "fclass": "hospital", "name": "Rumah Sakit Bala Kesalamatan", "name_en": "", "source": "" }, "geometry": { "type": "Point", "coordinates": [ 119.871689, -0.904419 ] } }
,
{ "type": "Feature", "properties": { "osm_id": "1570532209", "lastchange": "", "code": "2110", "fclass": "hospital", "name": "Rumah Sakit Budi Agung", "name_en": "", "source": "" }, "geometry": { "type": "Point", "coordinates": [ 119.874045, -0.907512 ] } }
,
{ "type": "Feature", "properties": { "osm_id": "1570532218", "lastchange": "", "code": "2110", "fclass": "hospital", "name": "Rumah Sakit Dira", "name_en": "", "source": "" }, "geometry": { "type": "Point", "coordinates": [ 119.876375, -0.901928 ] } }
,
{ "type": "Feature", "properties": { "osm_id": "1570532219", "lastchange": "", "code": "2110", "fclass": "hospital", "name": "Rumah Sakit Korem 132", "name_en": "", "source": "" }, "geometry": { "type": "Point", "coordinates": [ 119.887453, -0.895851 ] } }
,
{ "type": "Feature", "properties": { "osm_id": "1580686191", "lastchange": "", "code": "2110", "fclass": "hospital", "name": "Rumah Sakit AL Dr Ramelan", "name_en": "", "source": "" }, "geometry": { "type": "Point", "coordinates": [ 112.737158, -7.306522 ] } }
,
{ "type": "Feature", "properties": { "osm_id": "1580868477", "lastchange": "", "code": "2110", "fclass": "hospital", "name": "Puskesmas Baqa", "name_en": "", "source": "" }, "geometry": { "type": "Point", "coordinates": [ 117.141924, -0.510450 ] } }
,
{ "type": "Feature", "properties": { "osm_id": "1580868479", "lastchange": "", "code": "2110", "fclass": "hospital", "name": "Puskesmas Mangkupalas", "name_en": "", "source": "" }, "geometry": { "type": "Point", "coordinates": [ 117.148822, -0.517505 ] } }
,
{ "type": "Feature", "properties": { "osm_id": "1581198781", "lastchange": "", "code": "2110", "fclass": "hospital", "name": "RS Darjad", "name_en": "", "source": "" }, "geometry": { "type": "Point", "coordinates": [ 117.148933, -0.494585 ] } }
,
{ "type": "Feature", "properties": { "osm_id": "1581198787", "lastchange": "", "code": "2110", "fclass": "hospital", "name": "RS Dirgahayu", "name_en": "", "source": "" }, "geometry": { "type": "Point", "coordinates": [ 117.136174, -0.498533 ] } }
,
{ "type": "Feature", "properties": { "osm_id": "1588110886", "lastchange": "", "code": "2110", "fclass": "hospital", "name": "Pskesmas Donggo", "name_en": "", "source": "" }, "geometry": { "type": "Point", "coordinates": [ 118.595183, -8.424850 ] } }
,
{ "type": "Feature", "properties": { "osm_id": "1588591656", "lastchange": "", "code": "2110", "fclass": "hospital", "name": "Puskesmas Karang Asam", "name_en": "", "source": "" }, "geometry": { "type": "Point", "coordinates": [ 117.117479, -0.510115 ] } }
,
{ "type": "Feature", "properties": { "osm_id": "1588591661", "lastchange": "", "code": "2110", "fclass": "hospital", "name": "Puskesmas Wonorejo", "name_en": "", "source": "" }, "geometry": { "type": "Point", "coordinates": [ 117.126115, -0.498222 ] } }
,
{ "type": "Feature", "properties": { "osm_id": "1611867322", "lastchange": "", "code": "2110", "fclass": "hospital", "name": "Rumah Sakit Bedah", "name_en": "", "source": "" }, "geometry": { "type": "Point", "coordinates": [ 117.141938, -0.474226 ] } }
,
{ "type": "Feature", "properties": { "osm_id": "1612726232", "lastchange": "", "code": "2110", "fclass": "hospital", "name": "Klinik Pengobatan Herbal Hall Licheng", "name_en": "", "source": "" }, "geometry": { "type": "Point", "coordinates": [ 123.584206, -10.157964 ] } }
,
{ "type": "Feature", "properties": { "osm_id": "1612727066", "lastchange": "", "code": "2110", "fclass": "hospital", "name": "Posyandu Kemala", "name_en": "", "source": "" }, "geometry": { "type": "Point", "coordinates": [ 123.586105, -10.159195 ] } }
,
{ "type": "Feature", "properties": { "osm_id": "1612860144", "lastchange": "", "code": "2110", "fclass": "hospital", "name": "Rumah Sakit Bhakti Nugraha", "name_en": "", "source": "" }, "geometry": { "type": "Point", "coordinates": [ 117.147188, -0.495962 ] } }
,
{ "type": "Feature", "properties": { "osm_id": "1612860145", "lastchange": "", "code": "2110", "fclass": "hospital", "name": "Rumah Sakit Tentara", "name_en": "", "source": "" }, "geometry": { "type": "Point", "coordinates": [ 117.142853, -0.501599 ] } }
,
{ "type": "Feature", "properties": { "osm_id": "1615128694", "lastchange": "", "code": "2110", "fclass": "hospital", "name": "Puskesmas Oebobo", "name_en": "", "source": "" }, "geometry": { "type": "Point", "coordinates": [ 123.597700, -10.166363 ] } }
,
{ "type": "Feature", "properties": { "osm_id": "1615695989", "lastchange": "", "code": "2110", "fclass": "hospital", "name": "Klinik Malaria", "name_en": "", "source": "" }, "geometry": { "type": "Point", "coordinates": [ 119.386452, -9.767325 ] } }
,
{ "type": "Feature", "properties": { "osm_id": "1615696099", "lastchange": "", "code": "2110", "fclass": "hospital", "name": "", "name_en": "", "source": "" }, "geometry": { "type": "Point", "coordinates": [ 119.386759, -9.764604 ] } }
,
{ "type": "Feature", "properties": { "osm_id": "1615696148", "lastchange": "", "code": "2110", "fclass": "hospital", "name": "", "name_en": "", "source": "" }, "geometry": { "type": "Point", "coordinates": [ 119.384054, -9.777144 ] } }
,
{ "type": "Feature", "properties": { "osm_id": "1615889471", "lastchange": "", "code": "2110", "fclass": "hospital", "name": "Puskesdes Manukuku", "name_en": "", "source": "" }, "geometry": { "type": "Point", "coordinates": [ 119.417747, -9.492913 ] } }
,
{ "type": "Feature", "properties": { "osm_id": "1619904930", "lastchange": "", "code": "2110", "fclass": "hospital", "name": "Rumah Sakit Daerah Praya", "name_en": "", "source": "" }, "geometry": { "type": "Point", "coordinates": [ 116.295087, -8.702232 ] } }
,
{ "type": "Feature", "properties": { "osm_id": "1620234325", "lastchange": "", "code": "2110", "fclass": "hospital", "name": "", "name_en": "", "source": "" }, "geometry": { "type": "Point", "coordinates": [ 120.644525, -1.760413 ] } }
,
{ "type": "Feature", "properties": { "osm_id": "1621068598", "lastchange": "", "code": "2110", "fclass": "hospital", "name": "Klinik Pengobatan Shin She-Ramuan China", "name_en": "", "source": "" }, "geometry": { "type": "Point", "coordinates": [ 123.631850, -10.147428 ] } }
,
{ "type": "Feature", "properties": { "osm_id": "1621068614", "lastchange": "", "code": "2110", "fclass": "hospital", "name": "Posyandu Bunda VI", "name_en": "", "source": "" }, "geometry": { "type": "Point", "coordinates": [ 123.629797, -10.150011 ] } }
,
{ "type": "Feature", "properties": { "osm_id": "1621068615", "lastchange": "", "code": "2110", "fclass": "hospital", "name": "Rumah Sakit Hewan", "name_en": "", "source": "" }, "geometry": { "type": "Point", "coordinates": [ 123.633233, -10.147949 ] } }
,
{ "type": "Feature", "properties": { "osm_id": "1621095906", "lastchange": "", "code": "2110", "fclass": "hospital", "name": "Posyandu Bukit Sion", "name_en": "", "source": "" }, "geometry": { "type": "Point", "coordinates": [ 123.610970, -10.250411 ] } }
,
{ "type": "Feature", "properties": { "osm_id": "1621095910", "lastchange": "", "code": "2110", "fclass": "hospital", "name": "Posyandu Melati", "name_en": "", "source": "" }, "geometry": { "type": "Point", "coordinates": [ 123.600074, -10.222578 ] } }
,
{ "type": "Feature", "properties": { "osm_id": "1621095935", "lastchange": "", "code": "2110", "fclass": "hospital", "name": "Posyandu Sejahtera", "name_en": "", "source": "" }, "geometry": { "type": "Point", "coordinates": [ 123.622945, -10.250715 ] } }
,
{ "type": "Feature", "properties": { "osm_id": "1621095957", "lastchange": "", "code": "2110", "fclass": "hospital", "name": "Posyandu", "name_en": "", "source": "" }, "geometry": { "type": "Point", "coordinates": [ 123.606390, -10.230625 ] } }
,
{ "type": "Feature", "properties": { "osm_id": "1621095962", "lastchange": "", "code": "2110", "fclass": "hospital", "name": "Puskesmas Pembantu Fatukoa", "name_en": "", "source": "" }, "geometry": { "type": "Point", "coordinates": [ 123.607677, -10.231857 ] } }
,
{ "type": "Feature", "properties": { "osm_id": "1621109804", "lastchange": "", "code": "2110", "fclass": "hospital", "name": "Puskesmas Pembantu Oebufu", "name_en": "", "source": "" }, "geometry": { "type": "Point", "coordinates": [ 123.622180, -10.177309 ] } }
,
{ "type": "Feature", "properties": { "osm_id": "1621109824", "lastchange": "", "code": "2110", "fclass": "hospital", "name": "Rumah Sakit Ibu Dan Anak Dedari", "name_en": "", "source": "" }, "geometry": { "type": "Point", "coordinates": [ 123.627579, -10.166284 ] } }
,
{ "type": "Feature", "properties": { "osm_id": "1623040037", "lastchange": "", "code": "2110", "fclass": "hospital", "name": "Puskesmas Sikumana", "name_en": "", "source": "" }, "geometry": { "type": "Point", "coordinates": [ 123.604563, -10.200476 ] } }
,
{ "type": "Feature", "properties": { "osm_id": "1623040038", "lastchange": "", "code": "2110", "fclass": "hospital", "name": "Pustu Bello", "name_en": "", "source": "" }, "geometry": { "type": "Point", "coordinates": [ 123.626499, -10.218537 ] } }
,
{ "type": "Feature", "properties": { "osm_id": "1623040039", "lastchange": "", "code": "2110", "fclass": "hospital", "name": "Rawat Inap Puskesmas Sikumana", "name_en": "", "source": "" }, "geometry": { "type": "Point", "coordinates": [ 123.604188, -10.200834 ] } }
,
{ "type": "Feature", "properties": { "osm_id": "1623067028", "lastchange": "", "code": "2110", "fclass": "hospital", "name": "Klinik St. Carolus Borromeus", "name_en": "", "source": "" }, "geometry": { "type": "Point", "coordinates": [ 123.620961, -10.215056 ] } }
,
{ "type": "Feature", "properties": { "osm_id": "1628493436", "lastchange": "", "code": "2110", "fclass": "hospital", "name": "Poskesdes Oelomin", "name_en": "", "source": "" }, "geometry": { "type": "Point", "coordinates": [ 123.634340, -10.235867 ] } }
,
{ "type": "Feature", "properties": { "osm_id": "1628664846", "lastchange": "", "code": "2110", "fclass": "hospital", "name": "PUSTU TUNFEU", "name_en": "", "source": "" }, "geometry": { "type": "Point", "coordinates": [ 123.645387, -10.241511 ] } }
,
{ "type": "Feature", "properties": { "osm_id": "1629280962", "lastchange": "", "code": "2110", "fclass": "hospital", "name": "Pustu", "name_en": "", "source": "" }, "geometry": { "type": "Point", "coordinates": [ 118.510471, -8.477590 ] } }
,
{ "type": "Feature", "properties": { "osm_id": "1631214007", "lastchange": "", "code": "2110", "fclass": "hospital", "name": "Puskesmas Srengat", "name_en": "", "source": "" }, "geometry": { "type": "Point", "coordinates": [ 112.062451, -8.061834 ] } }
,
{ "type": "Feature", "properties": { "osm_id": "1632683067", "lastchange": "", "code": "2110", "fclass": "hospital", "name": "Puskesmas Pembantu", "name_en": "", "source": "" }, "geometry": { "type": "Point", "coordinates": [ 123.176901, -4.748086 ] } }
,
{ "type": "Feature", "properties": { "osm_id": "1633459712", "lastchange": "", "code": "2110", "fclass": "hospital", "name": "Bogenvil 2", "name_en": "", "source": "" }, "geometry": { "type": "Point", "coordinates": [ 123.583535, -10.160809 ] } }
,
{ "type": "Feature", "properties": { "osm_id": "1633459713", "lastchange": "", "code": "2110", "fclass": "hospital", "name": "Bogenvil 3", "name_en": "", "source": "" }, "geometry": { "type": "Point", "coordinates": [ 123.582658, -10.160785 ] } }
,
{ "type": "Feature", "properties": { "osm_id": "1633459714", "lastchange": "", "code": "2110", "fclass": "hospital", "name": "Bogenvil 4", "name_en": "", "source": "" }, "geometry": { "type": "Point", "coordinates": [ 123.581896, -10.158491 ] } }
,
{ "type": "Feature", "properties": { "osm_id": "1633554326", "lastchange": "", "code": "2110", "fclass": "hospital", "name": "Puskesmas Panite", "name_en": "", "source": "" }, "geometry": { "type": "Point", "coordinates": [ 124.231099, -10.077263 ] } }
,
{ "type": "Feature", "properties": { "osm_id": "1633578344", "lastchange": "", "code": "2110", "fclass": "hospital", "name": "Rumah Sakit", "name_en": "", "source": "" }, "geometry": { "type": "Point", "coordinates": [ 113.822254, -7.911454 ] } }
,
{ "type": "Feature", "properties": { "osm_id": "1634141782", "lastchange": "", "code": "2110", "fclass": "hospital", "name": "RSUD Mardi Waluyo", "name_en": "", "source": "" }, "geometry": { "type": "Point", "coordinates": [ 112.179866, -8.109535 ] } }
,
{ "type": "Feature", "properties": { "osm_id": "1634419580", "lastchange": "", "code": "2110", "fclass": "hospital", "name": "RS. Budi Rahayu", "name_en": "", "source": "" }, "geometry": { "type": "Point", "coordinates": [ 112.172182, -8.099816 ] } }
,
{ "type": "Feature", "properties": { "osm_id": "1634903338", "lastchange": "", "code": "2110", "fclass": "hospital", "name": "Polindes Oekiu", "name_en": "", "source": "" }, "geometry": { "type": "Point", "coordinates": [ 124.299234, -10.068063 ] } }
,
{ "type": "Feature", "properties": { "osm_id": "1634918485", "lastchange": "", "code": "2110", "fclass": "hospital", "name": "Puskesmas Lama", "name_en": "", "source": "" }, "geometry": { "type": "Point", "coordinates": [ 124.231259, -10.075153 ] } }
,
{ "type": "Feature", "properties": { "osm_id": "1641360622", "lastchange": "", "code": "2110", "fclass": "hospital", "name": "Klinik Bersalin", "name_en": "", "source": "" }, "geometry": { "type": "Point", "coordinates": [ 123.600689, -10.193355 ] } }
,
{ "type": "Feature", "properties": { "osm_id": "1641360666", "lastchange": "", "code": "2110", "fclass": "hospital", "name": "Posyandu Anggrek", "name_en": "", "source": "" }, "geometry": { "type": "Point", "coordinates": [ 123.601197, -10.192469 ] } }
,
{ "type": "Feature", "properties": { "osm_id": "1641360673", "lastchange": "", "code": "2110", "fclass": "hospital", "name": "Posyandu Merpati", "name_en": "", "source": "" }, "geometry": { "type": "Point", "coordinates": [ 123.604479, -10.187127 ] } }
,
{ "type": "Feature", "properties": { "osm_id": "1641360684", "lastchange": "", "code": "2110", "fclass": "hospital", "name": "Pustu", "name_en": "", "source": "" }, "geometry": { "type": "Point", "coordinates": [ 123.605310, -10.190775 ] } }
,
{ "type": "Feature", "properties": { "osm_id": "1641362996", "lastchange": "", "code": "2110", "fclass": "hospital", "name": "Klinik Bersalin", "name_en": "", "source": "" }, "geometry": { "type": "Point", "coordinates": [ 123.600689, -10.193355 ] } }
,
{ "type": "Feature", "properties": { "osm_id": "1641363046", "lastchange": "", "code": "2110", "fclass": "hospital", "name": "Posyandu Anggrek", "name_en": "", "source": "" }, "geometry": { "type": "Point", "coordinates": [ 123.601197, -10.192469 ] } }
,
{ "type": "Feature", "properties": { "osm_id": "1641363062", "lastchange": "", "code": "2110", "fclass": "hospital", "name": "Posyandu Putri Malu", "name_en": "", "source": "" }, "geometry": { "type": "Point", "coordinates": [ 123.601864, -10.189491 ] } }
,
{ "type": "Feature", "properties": { "osm_id": "1641363064", "lastchange": "", "code": "2110", "fclass": "hospital", "name": "Posyandu Sehati", "name_en": "", "source": "" }, "geometry": { "type": "Point", "coordinates": [ 123.599287, -10.188525 ] } }
,
{ "type": "Feature", "properties": { "osm_id": "1641363065", "lastchange": "", "code": "2110", "fclass": "hospital", "name": "Pustu", "name_en": "", "source": "" }, "geometry": { "type": "Point", "coordinates": [ 123.605310, -10.190775 ] } }
,
{ "type": "Feature", "properties": { "osm_id": "1645485988", "lastchange": "", "code": "2110", "fclass": "hospital", "name": "Poskesde", "name_en": "", "source": "" }, "geometry": { "type": "Point", "coordinates": [ 118.522127, -8.440654 ] } }
,
{ "type": "Feature", "properties": { "osm_id": "1653915707", "lastchange": "", "code": "2110", "fclass": "hospital", "name": "RS Dr. Sumantri", "name_en": "", "source": "" }, "geometry": { "type": "Point", "coordinates": [ 119.624813, -4.012972 ] } }
,
{ "type": "Feature", "properties": { "osm_id": "1655560628", "lastchange": "", "code": "2110", "fclass": "hospital", "name": "Posyandu Asoka", "name_en": "", "source": "" }, "geometry": { "type": "Point", "coordinates": [ 123.629898, -10.161982 ] } }
,
{ "type": "Feature", "properties": { "osm_id": "1655560629", "lastchange": "", "code": "2110", "fclass": "hospital", "name": "Posyandu Kasih Sayang", "name_en": "", "source": "" }, "geometry": { "type": "Point", "coordinates": [ 123.632726, -10.162987 ] } }
,
{ "type": "Feature", "properties": { "osm_id": "1655560630", "lastchange": "", "code": "2110", "fclass": "hospital", "name": "Posyandu Sayang Anak", "name_en": "", "source": "" }, "geometry": { "type": "Point", "coordinates": [ 123.632484, -10.159944 ] } }
,
{ "type": "Feature", "properties": { "osm_id": "1655560631", "lastchange": "", "code": "2110", "fclass": "hospital", "name": "Pustu Tuak Taun Merah", "name_en": "", "source": "" }, "geometry": { "type": "Point", "coordinates": [ 123.634687, -10.161724 ] } }
,
{ "type": "Feature", "properties": { "osm_id": "1657503395", "lastchange": "", "code": "2110", "fclass": "hospital", "name": "Hermina", "name_en": "", "source": "" }, "geometry": { "type": "Point", "coordinates": [ 107.588450, -6.895410 ] } }
,
{ "type": "Feature", "properties": { "osm_id": "1663995423", "lastchange": "", "code": "2110", "fclass": "hospital", "name": "RS Pondok Indah Puri Indah", "name_en": "", "source": "" }, "geometry": { "type": "Point", "coordinates": [ 106.735358, -6.186144 ] } }
,
{ "type": "Feature", "properties": { "osm_id": "1665399161", "lastchange": "", "code": "2110", "fclass": "hospital", "name": "pustu pinang luar", "name_en": "", "source": "" }, "geometry": { "type": "Point", "coordinates": [ 109.393875, -0.312131 ] } }
,
{ "type": "Feature", "properties": { "osm_id": "1665446608", "lastchange": "", "code": "2110", "fclass": "hospital", "name": "polindes kampung baru", "name_en": "", "source": "" }, "geometry": { "type": "Point", "coordinates": [ 109.443915, -0.378160 ] } }
,
{ "type": "Feature", "properties": { "osm_id": "1665446609", "lastchange": "", "code": "2110", "fclass": "hospital", "name": "pustu pinang dalam", "name_en": "", "source": "" }, "geometry": { "type": "Point", "coordinates": [ 109.413436, -0.359509 ] } }
,
{ "type": "Feature", "properties": { "osm_id": "1665453269", "lastchange": "", "code": "2110", "fclass": "hospital", "name": "Puskesmas Puweri", "name_en": "", "source": "" }, "geometry": { "type": "Point", "coordinates": [ 119.452370, -9.627227 ] } }
,
{ "type": "Feature", "properties": { "osm_id": "1665473349", "lastchange": "", "code": "2110", "fclass": "hospital", "name": "Pustu Weekarou", "name_en": "", "source": "" }, "geometry": { "type": "Point", "coordinates": [ 119.389397, -9.654704 ] } }
,
{ "type": "Feature", "properties": { "osm_id": "1665558612", "lastchange": "", "code": "2110", "fclass": "hospital", "name": "Kompleks RSU Waikabubak", "name_en": "", "source": "" }, "geometry": { "type": "Point", "coordinates": [ 119.380278, -9.621614 ] } }
,
{ "type": "Feature", "properties": { "osm_id": "1666777406", "lastchange": "", "code": "2110", "fclass": "hospital", "name": "Posyandu Warabara Mamodu", "name_en": "", "source": "" }, "geometry": { "type": "Point", "coordinates": [ 119.408806, -9.714572 ] } }
,
{ "type": "Feature", "properties": { "osm_id": "1666777426", "lastchange": "", "code": "2110", "fclass": "hospital", "name": "Posyandu Watu mbelar Mamodu", "name_en": "", "source": "" }, "geometry": { "type": "Point", "coordinates": [ 119.408743, -9.718604 ] } }
,
{ "type": "Feature", "properties": { "osm_id": "1666792410", "lastchange": "", "code": "2110", "fclass": "hospital", "name": "Posyandu 2 Kambar", "name_en": "", "source": "" }, "geometry": { "type": "Point", "coordinates": [ 119.416384, -9.627594 ] } }
,
{ "type": "Feature", "properties": { "osm_id": "1666814563", "lastchange": "", "code": "2110", "fclass": "hospital", "name": "Posyandu Anggrek 2", "name_en": "", "source": "" }, "geometry": { "type": "Point", "coordinates": [ 119.409491, -9.635711 ] } }
,
{ "type": "Feature", "properties": { "osm_id": "1666857747", "lastchange": "", "code": "2110", "fclass": "hospital", "name": "Posyandu Anggrek", "name_en": "", "source": "" }, "geometry": { "type": "Point", "coordinates": [ 119.405899, -9.635025 ] } }
,
{ "type": "Feature", "properties": { "osm_id": "1666884669", "lastchange": "", "code": "2110", "fclass": "hospital", "name": "Pustu Bukambera", "name_en": "", "source": "" }, "geometry": { "type": "Point", "coordinates": [ 119.113808, -9.445427 ] } }
,
{ "type": "Feature", "properties": { "osm_id": "1667249606", "lastchange": "", "code": "2110", "fclass": "hospital", "name": "RS Lende Moripa", "name_en": "", "source": "" }, "geometry": { "type": "Point", "coordinates": [ 119.414039, -9.632309 ] } }
,
{ "type": "Feature", "properties": { "osm_id": "1667257234", "lastchange": "", "code": "2110", "fclass": "hospital", "name": "Posyandu", "name_en": "", "source": "" }, "geometry": { "type": "Point", "coordinates": [ 119.138893, -9.438610 ] } }
,
{ "type": "Feature", "properties": { "osm_id": "1667257238", "lastchange": "", "code": "2110", "fclass": "hospital", "name": "Posyandu", "name_en": "", "source": "" }, "geometry": { "type": "Point", "coordinates": [ 119.064981, -9.458752 ] } }
,
{ "type": "Feature", "properties": { "osm_id": "1667257242", "lastchange": "", "code": "2110", "fclass": "hospital", "name": "Pustu Manganini", "name_en": "", "source": "" }, "geometry": { "type": "Point", "coordinates": [ 119.043169, -9.488273 ] } }
,
{ "type": "Feature", "properties": { "osm_id": "1667312956", "lastchange": "", "code": "2110", "fclass": "hospital", "name": "Pustu Kori", "name_en": "", "source": "" }, "geometry": { "type": "Point", "coordinates": [ 119.036585, -9.505837 ] } }
,
{ "type": "Feature", "properties": { "osm_id": "1668648986", "lastchange": "", "code": "2110", "fclass": "hospital", "name": "Puskesmas Bondokodi", "name_en": "", "source": "" }, "geometry": { "type": "Point", "coordinates": [ 118.994168, -9.594362 ] } }
,
{ "type": "Feature", "properties": { "osm_id": "1668648989", "lastchange": "", "code": "2110", "fclass": "hospital", "name": "Pustu Waiha", "name_en": "", "source": "" }, "geometry": { "type": "Point", "coordinates": [ 119.044292, -9.634924 ] } }
,
{ "type": "Feature", "properties": { "osm_id": "1668648998", "lastchange": "", "code": "2110", "fclass": "hospital", "name": "Pustu", "name_en": "", "source": "" }, "geometry": { "type": "Point", "coordinates": [ 119.024042, -9.532203 ] } }
,
{ "type": "Feature", "properties": { "osm_id": "1668695550", "lastchange": "", "code": "2110", "fclass": "hospital", "name": "Rumah Sakit Bumi Waras", "name_en": "", "source": "" }, "geometry": { "type": "Point", "coordinates": [ 105.250812, -5.424982 ] } }
,
{ "type": "Feature", "properties": { "osm_id": "1668739547", "lastchange": "", "code": "2110", "fclass": "hospital", "name": "Pustu Panggeode", "name_en": "", "source": "" }, "geometry": { "type": "Point", "coordinates": [ 119.052307, -9.667879 ] } }
,
{ "type": "Feature", "properties": { "osm_id": "1669946958", "lastchange": "", "code": "2110", "fclass": "hospital", "name": "Posyandu Anakaka", "name_en": "", "source": "" },