{
"type": "FeatureCollection",
"features": [
{ "type": "Feature", "properties": { "osm_id": "32520366", "lastchange": "", "code": "2001", "fclass": "police", "name": "Polsek Cicendo", "name_en": "", "source": "" }, "geometry": { "type": "Point", "coordinates": [ 107.597332, -6.906863 ] } }
,
{ "type": "Feature", "properties": { "osm_id": "32520386", "lastchange": "", "code": "2001", "fclass": "police", "name": "Polsek Bandung Wetan", "name_en": "", "source": "" }, "geometry": { "type": "Point", "coordinates": [ 107.621589, -6.908001 ] } }
,
{ "type": "Feature", "properties": { "osm_id": "32527727", "lastchange": "", "code": "2001", "fclass": "police", "name": "Polres Bandung Tengah", "name_en": "", "source": "" }, "geometry": { "type": "Point", "coordinates": [ 107.631111, -6.915741 ] } }
,
{ "type": "Feature", "properties": { "osm_id": "310002897", "lastchange": "", "code": "2001", "fclass": "police", "name": "", "name_en": "", "source": "" }, "geometry": { "type": "Point", "coordinates": [ 106.834959, -6.231913 ] } }
,
{ "type": "Feature", "properties": { "osm_id": "311432388", "lastchange": "", "code": "2001", "fclass": "police", "name": "", "name_en": "", "source": "" }, "geometry": { "type": "Point", "coordinates": [ 112.711105, -7.281482 ] } }
,
{ "type": "Feature", "properties": { "osm_id": "318838248", "lastchange": "", "code": "2001", "fclass": "police", "name": "Polsek Pulo Gadung", "name_en": "", "source": "" }, "geometry": { "type": "Point", "coordinates": [ 106.890889, -6.210437 ] } }
,
{ "type": "Feature", "properties": { "osm_id": "319535786", "lastchange": "", "code": "2001", "fclass": "police", "name": "", "name_en": "", "source": "" }, "geometry": { "type": "Point", "coordinates": [ 106.789657, -6.241906 ] } }
,
{ "type": "Feature", "properties": { "osm_id": "320120750", "lastchange": "", "code": "2001", "fclass": "police", "name": "", "name_en": "", "source": "" }, "geometry": { "type": "Point", "coordinates": [ 106.846483, -6.231891 ] } }
,
{ "type": "Feature", "properties": { "osm_id": "330063892", "lastchange": "", "code": "2001", "fclass": "police", "name": "Polres T. Tinggi", "name_en": "", "source": "" }, "geometry": { "type": "Point", "coordinates": [ 99.161771, 3.325281 ] } }
,
{ "type": "Feature", "properties": { "osm_id": "412340230", "lastchange": "", "code": "2001", "fclass": "police", "name": "Polici", "name_en": "", "source": "" }, "geometry": { "type": "Point", "coordinates": [ 112.746824, -7.258211 ] } }
,
{ "type": "Feature", "properties": { "osm_id": "412341924", "lastchange": "", "code": "2001", "fclass": "police", "name": "", "name_en": "", "source": "" }, "geometry": { "type": "Point", "coordinates": [ 112.737280, -7.256021 ] } }
,
{ "type": "Feature", "properties": { "osm_id": "413451355", "lastchange": "", "code": "2001", "fclass": "police", "name": "", "name_en": "", "source": "" }, "geometry": { "type": "Point", "coordinates": [ 116.198002, -8.596211 ] } }
,
{ "type": "Feature", "properties": { "osm_id": "417285505", "lastchange": "", "code": "2001", "fclass": "police", "name": "", "name_en": "", "source": "" }, "geometry": { "type": "Point", "coordinates": [ 116.629738, -8.553935 ] } }
,
{ "type": "Feature", "properties": { "osm_id": "473368147", "lastchange": "", "code": "2001", "fclass": "police", "name": "", "name_en": "", "source": "" }, "geometry": { "type": "Point", "coordinates": [ 106.806821, -6.579304 ] } }
,
{ "type": "Feature", "properties": { "osm_id": "521553456", "lastchange": "", "code": "2001", "fclass": "police", "name": "Police Headquarters", "name_en": "", "source": "" }, "geometry": { "type": "Point", "coordinates": [ 115.225271, -8.648964 ] } }
,
{ "type": "Feature", "properties": { "osm_id": "577447499", "lastchange": "", "code": "2001", "fclass": "police", "name": "Polsek Medan Kota", "name_en": "", "source": "" }, "geometry": { "type": "Point", "coordinates": [ 98.693127, 3.565358 ] } }
,
{ "type": "Feature", "properties": { "osm_id": "577453512", "lastchange": "", "code": "2001", "fclass": "police", "name": "Polsek Medan Timur", "name_en": "", "source": "" }, "geometry": { "type": "Point", "coordinates": [ 98.683900, 3.600266 ] } }
,
{ "type": "Feature", "properties": { "osm_id": "583220660", "lastchange": "", "code": "2001", "fclass": "police", "name": "Pos Polisi Tomang", "name_en": "", "source": "" }, "geometry": { "type": "Point", "coordinates": [ 106.798296, -6.166449 ] } }
,
{ "type": "Feature", "properties": { "osm_id": "583252414", "lastchange": "", "code": "2001", "fclass": "police", "name": "Pos Polisi Suren", "name_en": "", "source": "" }, "geometry": { "type": "Point", "coordinates": [ 106.812774, -6.233501 ] } }
,
{ "type": "Feature", "properties": { "osm_id": "702191755", "lastchange": "", "code": "2001", "fclass": "police", "name": "", "name_en": "", "source": "" }, "geometry": { "type": "Point", "coordinates": [ 103.929770, 1.053850 ] } }
,
{ "type": "Feature", "properties": { "osm_id": "702331020", "lastchange": "", "code": "2001", "fclass": "police", "name": "Police (Pos Polisi Pel.Sagulung)", "name_en": "", "source": "" }, "geometry": { "type": "Point", "coordinates": [ 103.925260, 1.026620 ] } }
,
{ "type": "Feature", "properties": { "osm_id": "702331555", "lastchange": "", "code": "2001", "fclass": "police", "name": "", "name_en": "", "source": "" }, "geometry": { "type": "Point", "coordinates": [ 103.937060, 1.081100 ] } }
,
{ "type": "Feature", "properties": { "osm_id": "702349813", "lastchange": "", "code": "2001", "fclass": "police", "name": "Police Hq(Poltabes Barelang)", "name_en": "", "source": "" }, "geometry": { "type": "Point", "coordinates": [ 104.020270, 1.118090 ] } }
,
{ "type": "Feature", "properties": { "osm_id": "702672444", "lastchange": "", "code": "2001", "fclass": "police", "name": "Police (Polsek Lubuk Baja)", "name_en": "", "source": "" }, "geometry": { "type": "Point", "coordinates": [ 104.016580, 1.132000 ] } }
,
{ "type": "Feature", "properties": { "osm_id": "703809447", "lastchange": "", "code": "2001", "fclass": "police", "name": "Police (Polsekta Batu Ampar)", "name_en": "", "source": "" }, "geometry": { "type": "Point", "coordinates": [ 104.002720, 1.162320 ] } }
,
{ "type": "Feature", "properties": { "osm_id": "707544012", "lastchange": "", "code": "2001", "fclass": "police", "name": "Polisi Hutan Pos", "name_en": "", "source": "" }, "geometry": { "type": "Point", "coordinates": [ 103.988840, 1.101740 ] } }
,
{ "type": "Feature", "properties": { "osm_id": "718919180", "lastchange": "", "code": "2001", "fclass": "police", "name": "Pospol MKGR", "name_en": "", "source": "" }, "geometry": { "type": "Point", "coordinates": [ 103.982658, 1.042576 ] } }
,
{ "type": "Feature", "properties": { "osm_id": "718922043", "lastchange": "", "code": "2001", "fclass": "police", "name": "", "name_en": "", "source": "" }, "geometry": { "type": "Point", "coordinates": [ 104.036020, 1.065460 ] } }
,
{ "type": "Feature", "properties": { "osm_id": "736622241", "lastchange": "", "code": "2001", "fclass": "police", "name": "Pos Police", "name_en": "", "source": "" }, "geometry": { "type": "Point", "coordinates": [ 104.005300, 1.152280 ] } }
,
{ "type": "Feature", "properties": { "osm_id": "736645604", "lastchange": "", "code": "2001", "fclass": "police", "name": "Pltd Tg.Sengkuang", "name_en": "", "source": "" }, "geometry": { "type": "Point", "coordinates": [ 104.022520, 1.178820 ] } }
,
{ "type": "Feature", "properties": { "osm_id": "760502646", "lastchange": "", "code": "2001", "fclass": "police", "name": "Police Province Hq (Polda Kepri)", "name_en": "", "source": "" }, "geometry": { "type": "Point", "coordinates": [ 104.120096, 1.161920 ] } }
,
{ "type": "Feature", "properties": { "osm_id": "820947039", "lastchange": "", "code": "2001", "fclass": "police", "name": "", "name_en": "", "source": "" }, "geometry": { "type": "Point", "coordinates": [ 99.336865, 1.493660 ] } }
,
{ "type": "Feature", "properties": { "osm_id": "820983160", "lastchange": "", "code": "2001", "fclass": "police", "name": "", "name_en": "", "source": "" }, "geometry": { "type": "Point", "coordinates": [ 100.021844, 0.556319 ] } }
,
{ "type": "Feature", "properties": { "osm_id": "821082518", "lastchange": "", "code": "2001", "fclass": "police", "name": "", "name_en": "", "source": "" }, "geometry": { "type": "Point", "coordinates": [ 100.558360, -0.500347 ] } }
,
{ "type": "Feature", "properties": { "osm_id": "824318215", "lastchange": "", "code": "2001", "fclass": "police", "name": "Polizei", "name_en": "", "source": "" }, "geometry": { "type": "Point", "coordinates": [ 106.829588, -6.183437 ] } }
,
{ "type": "Feature", "properties": { "osm_id": "838266507", "lastchange": "", "code": "2001", "fclass": "police", "name": "Polisi Sektor Kerambitan", "name_en": "", "source": "" }, "geometry": { "type": "Point", "coordinates": [ 115.131212, -8.539462 ] } }
,
{ "type": "Feature", "properties": { "osm_id": "838266509", "lastchange": "", "code": "2001", "fclass": "police", "name": "", "name_en": "", "source": "" }, "geometry": { "type": "Point", "coordinates": [ 115.133025, -8.539422 ] } }
,
{ "type": "Feature", "properties": { "osm_id": "854210573", "lastchange": "", "code": "2001", "fclass": "police", "name": "Polisi Wilayah Bogor", "name_en": "", "source": "" }, "geometry": { "type": "Point", "coordinates": [ 106.791456, -6.596507 ] } }
,
{ "type": "Feature", "properties": { "osm_id": "856985677", "lastchange": "", "code": "2001", "fclass": "police", "name": "Police (Polsekta Btm.Ctr)", "name_en": "", "source": "" }, "geometry": { "type": "Point", "coordinates": [ 104.057180, 1.126210 ] } }
,
{ "type": "Feature", "properties": { "osm_id": "895872217", "lastchange": "", "code": "2001", "fclass": "police", "name": "Polsek Cibitung", "name_en": "", "source": "" }, "geometry": { "type": "Point", "coordinates": [ 107.103709, -6.273301 ] } }
,
{ "type": "Feature", "properties": { "osm_id": "901203711", "lastchange": "", "code": "2001", "fclass": "police", "name": "Police Post (Pos Polisi Kara)", "name_en": "", "source": "" }, "geometry": { "type": "Point", "coordinates": [ 104.041350, 1.110990 ] } }
,
{ "type": "Feature", "properties": { "osm_id": "902990041", "lastchange": "", "code": "2001", "fclass": "police", "name": "Police (Polsek Persiapan Bengkong)", "name_en": "", "source": "" }, "geometry": { "type": "Point", "coordinates": [ 104.028230, 1.158410 ] } }
,
{ "type": "Feature", "properties": { "osm_id": "939066581", "lastchange": "", "code": "2001", "fclass": "police", "name": "POs Polisi", "name_en": "", "source": "" }, "geometry": { "type": "Point", "coordinates": [ 116.839310, -1.261944 ] } }
,
{ "type": "Feature", "properties": { "osm_id": "965460515", "lastchange": "", "code": "2001", "fclass": "police", "name": "Tourist Police", "name_en": "", "source": "" }, "geometry": { "type": "Point", "coordinates": [ 115.168650, -8.716393 ] } }
,
{ "type": "Feature", "properties": { "osm_id": "1036809864", "lastchange": "", "code": "2001", "fclass": "police", "name": "Pos Cepu", "name_en": "", "source": "" }, "geometry": { "type": "Point", "coordinates": [ 107.021624, -6.712362 ] } }
,
{ "type": "Feature", "properties": { "osm_id": "1043742121", "lastchange": "", "code": "2001", "fclass": "police", "name": "POLSEK BOGOR TENGAH", "name_en": "", "source": "" }, "geometry": { "type": "Point", "coordinates": [ 106.793921, -6.582279 ] } }
,
{ "type": "Feature", "properties": { "osm_id": "1050638470", "lastchange": "", "code": "2001", "fclass": "police", "name": "Police Tourist", "name_en": "", "source": "" }, "geometry": { "type": "Point", "coordinates": [ 115.171024, -8.724960 ] } }
,
{ "type": "Feature", "properties": { "osm_id": "1050716749", "lastchange": "", "code": "2001", "fclass": "police", "name": "Kantor Polisi Sanur", "name_en": "", "source": "" }, "geometry": { "type": "Point", "coordinates": [ 115.260291, -8.684779 ] } }
,
{ "type": "Feature", "properties": { "osm_id": "1050725921", "lastchange": "", "code": "2001", "fclass": "police", "name": "Police Resort Gianyar", "name_en": "", "source": "" }, "geometry": { "type": "Point", "coordinates": [ 115.321947, -8.540657 ] } }
,
{ "type": "Feature", "properties": { "osm_id": "1050734982", "lastchange": "", "code": "2001", "fclass": "police", "name": "Kantor Polisi Melinggih", "name_en": "", "source": "" }, "geometry": { "type": "Point", "coordinates": [ 115.249477, -8.437220 ] } }
,
{ "type": "Feature", "properties": { "osm_id": "1050741305", "lastchange": "", "code": "2001", "fclass": "police", "name": "Kantor Polisi Tampak Siring", "name_en": "", "source": "" }, "geometry": { "type": "Point", "coordinates": [ 115.312023, -8.418068 ] } }
,
{ "type": "Feature", "properties": { "osm_id": "1053948148", "lastchange": "", "code": "2001", "fclass": "police", "name": "Kantor Polisi Tampak Siring", "name_en": "", "source": "" }, "geometry": { "type": "Point", "coordinates": [ 115.310269, -8.419144 ] } }
,
{ "type": "Feature", "properties": { "osm_id": "1053978676", "lastchange": "", "code": "2001", "fclass": "police", "name": "Kantor Polisi Pejeng", "name_en": "", "source": "" }, "geometry": { "type": "Point", "coordinates": [ 115.289624, -8.495490 ] } }
,
{ "type": "Feature", "properties": { "osm_id": "1054043817", "lastchange": "", "code": "2001", "fclass": "police", "name": "Polisi Sektor Bangli", "name_en": "", "source": "" }, "geometry": { "type": "Point", "coordinates": [ 115.355697, -8.447975 ] } }
,
{ "type": "Feature", "properties": { "osm_id": "1054181470", "lastchange": "", "code": "2001", "fclass": "police", "name": "Kantor Polisi Sukawati", "name_en": "", "source": "" }, "geometry": { "type": "Point", "coordinates": [ 115.277327, -8.593651 ] } }
,
{ "type": "Feature", "properties": { "osm_id": "1068988734", "lastchange": "", "code": "2001", "fclass": "police", "name": "", "name_en": "", "source": "" }, "geometry": { "type": "Point", "coordinates": [ 104.018667, 1.124107 ] } }
,
{ "type": "Feature", "properties": { "osm_id": "1069011993", "lastchange": "", "code": "2001", "fclass": "police", "name": "", "name_en": "", "source": "" }, "geometry": { "type": "Point", "coordinates": [ 104.006949, 1.150497 ] } }
,
{ "type": "Feature", "properties": { "osm_id": "1076641104", "lastchange": "", "code": "2001", "fclass": "police", "name": "", "name_en": "", "source": "" }, "geometry": { "type": "Point", "coordinates": [ 103.954756, 1.105250 ] } }
,
{ "type": "Feature", "properties": { "osm_id": "1076646001", "lastchange": "", "code": "2001", "fclass": "police", "name": "", "name_en": "", "source": "" }, "geometry": { "type": "Point", "coordinates": [ 104.018028, 1.130761 ] } }
,
{ "type": "Feature", "properties": { "osm_id": "1118863095", "lastchange": "", "code": "2001", "fclass": "police", "name": "Polsek Regol", "name_en": "", "source": "" }, "geometry": { "type": "Point", "coordinates": [ 107.606709, -6.939602 ] } }
,
{ "type": "Feature", "properties": { "osm_id": "1164677083", "lastchange": "", "code": "2001", "fclass": "police", "name": "Polsekta Nongsa", "name_en": "", "source": "" }, "geometry": { "type": "Point", "coordinates": [ 104.125015, 1.051806 ] } }
,
{ "type": "Feature", "properties": { "osm_id": "1230268729", "lastchange": "", "code": "2001", "fclass": "police", "name": "Polda Kaltim", "name_en": "", "source": "" }, "geometry": { "type": "Point", "coordinates": [ 116.885784, -1.230043 ] } }
,
{ "type": "Feature", "properties": { "osm_id": "1230268741", "lastchange": "", "code": "2001", "fclass": "police", "name": "Brimob", "name_en": "", "source": "" }, "geometry": { "type": "Point", "coordinates": [ 116.861741, -1.274997 ] } }
,
{ "type": "Feature", "properties": { "osm_id": "1230268971", "lastchange": "", "code": "2001", "fclass": "police", "name": "PURWA", "name_en": "", "source": "" }, "geometry": { "type": "Point", "coordinates": [ 116.835788, -1.276765 ] } }
,
{ "type": "Feature", "properties": { "osm_id": "1259236430", "lastchange": "", "code": "2001", "fclass": "police", "name": "Kecamatan Bantaeng Police Station  (Polsek)", "name_en": "", "source": "" }, "geometry": { "type": "Point", "coordinates": [ 119.946436, -5.543139 ] } }
,
{ "type": "Feature", "properties": { "osm_id": "1264700064", "lastchange": "", "code": "2001", "fclass": "police", "name": "Samsat \/ PJR lametuemen", "name_en": "", "source": "" }, "geometry": { "type": "Point", "coordinates": [ 95.297892, 5.530081 ] } }
,
{ "type": "Feature", "properties": { "osm_id": "1269987701", "lastchange": "", "code": "2001", "fclass": "police", "name": "Police Pos", "name_en": "", "source": "" }, "geometry": { "type": "Point", "coordinates": [ 111.533274, -7.632532 ] } }
,
{ "type": "Feature", "properties": { "osm_id": "1278542718", "lastchange": "", "code": "2001", "fclass": "police", "name": "Korem Babel", "name_en": "", "source": "" }, "geometry": { "type": "Point", "coordinates": [ 106.205574, -2.282921 ] } }
,
{ "type": "Feature", "properties": { "osm_id": "1279406992", "lastchange": "", "code": "2001", "fclass": "police", "name": "Polsek Merawang", "name_en": "", "source": "" }, "geometry": { "type": "Point", "coordinates": [ 106.110428, -2.021047 ] } }
,
{ "type": "Feature", "properties": { "osm_id": "1290243059", "lastchange": "", "code": "2001", "fclass": "police", "name": "", "name_en": "", "source": "" }, "geometry": { "type": "Point", "coordinates": [ 116.735740, -1.305381 ] } }
,
{ "type": "Feature", "properties": { "osm_id": "1296552261", "lastchange": "", "code": "2001", "fclass": "police", "name": "Asrama Polisi", "name_en": "", "source": "" }, "geometry": { "type": "Point", "coordinates": [ 106.094741, -2.147635 ] } }
,
{ "type": "Feature", "properties": { "osm_id": "1300526818", "lastchange": "", "code": "2001", "fclass": "police", "name": "Polsek Kebumen", "name_en": "", "source": "" }, "geometry": { "type": "Point", "coordinates": [ 109.669916, -7.676644 ] } }
,
{ "type": "Feature", "properties": { "osm_id": "1327775775", "lastchange": "", "code": "2001", "fclass": "police", "name": "Polsek Tamansari", "name_en": "", "source": "" }, "geometry": { "type": "Point", "coordinates": [ 106.109421, -2.115570 ] } }
,
{ "type": "Feature", "properties": { "osm_id": "1338421267", "lastchange": "", "code": "2001", "fclass": "police", "name": "Polisi Sektor Kota Bogor Selatan", "name_en": "", "source": "" }, "geometry": { "type": "Point", "coordinates": [ 106.800772, -6.611879 ] } }
,
{ "type": "Feature", "properties": { "osm_id": "1340375288", "lastchange": "", "code": "2001", "fclass": "police", "name": "Polsek Simpang Rimba", "name_en": "", "source": "" }, "geometry": { "type": "Point", "coordinates": [ 106.004354, -2.558596 ] } }
,
{ "type": "Feature", "properties": { "osm_id": "1341709937", "lastchange": "", "code": "2001", "fclass": "police", "name": "Polda Kep. Bangka Belitung", "name_en": "", "source": "" }, "geometry": { "type": "Point", "coordinates": [ 106.159934, -2.152342 ] } }
,
{ "type": "Feature", "properties": { "osm_id": "1346555799", "lastchange": "", "code": "2001", "fclass": "police", "name": "Polsek Rasanae Barat", "name_en": "", "source": "" }, "geometry": { "type": "Point", "coordinates": [ 118.724194, -8.457377 ] } }
,
{ "type": "Feature", "properties": { "osm_id": "1348247595", "lastchange": "", "code": "2001", "fclass": "police", "name": "Polsek Bulaksumur", "name_en": "", "source": "" }, "geometry": { "type": "Point", "coordinates": [ 110.378507, -7.766077 ] } }
,
{ "type": "Feature", "properties": { "osm_id": "1350406238", "lastchange": "", "code": "2001", "fclass": "police", "name": "Polsek Gerunggang", "name_en": "", "source": "" }, "geometry": { "type": "Point", "coordinates": [ 106.077424, -2.111252 ] } }
,
{ "type": "Feature", "properties": { "osm_id": "1354095197", "lastchange": "", "code": "2001", "fclass": "police", "name": "Polsekta Beji", "name_en": "", "source": "" }, "geometry": { "type": "Point", "coordinates": [ 106.813717, -6.375177 ] } }
,
{ "type": "Feature", "properties": { "osm_id": "1354144686", "lastchange": "", "code": "2001", "fclass": "police", "name": "Polsek Pancoran Mas", "name_en": "", "source": "" }, "geometry": { "type": "Point", "coordinates": [ 106.801394, -6.394791 ] } }
,
{ "type": "Feature", "properties": { "osm_id": "1356109300", "lastchange": "", "code": "2001", "fclass": "police", "name": "POLISI SEKTOR KOPANG", "name_en": "", "source": "" }, "geometry": { "type": "Point", "coordinates": [ 116.345856, -8.631192 ] } }
,
{ "type": "Feature", "properties": { "osm_id": "1357314646", "lastchange": "", "code": "2001", "fclass": "police", "name": "", "name_en": "", "source": "" }, "geometry": { "type": "Point", "coordinates": [ 118.744418, -8.461028 ] } }
,
{ "type": "Feature", "properties": { "osm_id": "1359511463", "lastchange": "", "code": "2001", "fclass": "police", "name": "Polrestabes Surabaya", "name_en": "", "source": "" }, "geometry": { "type": "Point", "coordinates": [ 112.736631, -7.238789 ] } }
,
{ "type": "Feature", "properties": { "osm_id": "1361091871", "lastchange": "", "code": "2001", "fclass": "police", "name": "Polsek Asakota", "name_en": "", "source": "" }, "geometry": { "type": "Point", "coordinates": [ 118.726585, -8.444157 ] } }
,
{ "type": "Feature", "properties": { "osm_id": "1361158435", "lastchange": "", "code": "2001", "fclass": "police", "name": "Satuan Polisi Pamong Praja", "name_en": "", "source": "" }, "geometry": { "type": "Point", "coordinates": [ 110.355297, -7.716930 ] } }
,
{ "type": "Feature", "properties": { "osm_id": "1361184760", "lastchange": "", "code": "2001", "fclass": "police", "name": "Polisi Pariwisata", "name_en": "", "source": "" }, "geometry": { "type": "Point", "coordinates": [ 110.359416, -7.720946 ] } }
,
{ "type": "Feature", "properties": { "osm_id": "1361455201", "lastchange": "", "code": "2001", "fclass": "police", "name": "Senayan", "name_en": "", "source": "" }, "geometry": { "type": "Point", "coordinates": [ 106.798284, -6.213998 ] } }
,
{ "type": "Feature", "properties": { "osm_id": "1362922066", "lastchange": "", "code": "2001", "fclass": "police", "name": "POLSEK DEPOK TIMUR", "name_en": "", "source": "" }, "geometry": { "type": "Point", "coordinates": [ 110.415419, -7.761811 ] } }
,
{ "type": "Feature", "properties": { "osm_id": "1364687763", "lastchange": "", "code": "2001", "fclass": "police", "name": "Polsekta Rangkui", "name_en": "", "source": "" }, "geometry": { "type": "Point", "coordinates": [ 106.115642, -2.128874 ] } }
,
{ "type": "Feature", "properties": { "osm_id": "1366489424", "lastchange": "", "code": "2001", "fclass": "police", "name": "Polda Sumsel", "name_en": "", "source": "" }, "geometry": { "type": "Point", "coordinates": [ 104.739815, -2.961085 ] } }
,
{ "type": "Feature", "properties": { "osm_id": "1370732585", "lastchange": "", "code": "2001", "fclass": "police", "name": "Polsek Woha", "name_en": "", "source": "" }, "geometry": { "type": "Point", "coordinates": [ 118.697660, -8.579701 ] } }
,
{ "type": "Feature", "properties": { "osm_id": "1370740676", "lastchange": "", "code": "2001", "fclass": "police", "name": "Polsek Padolo", "name_en": "", "source": "" }, "geometry": { "type": "Point", "coordinates": [ 118.694227, -8.544902 ] } }
,
{ "type": "Feature", "properties": { "osm_id": "1370742790", "lastchange": "", "code": "2001", "fclass": "police", "name": "Polresta Bima", "name_en": "", "source": "" }, "geometry": { "type": "Point", "coordinates": [ 118.701318, -8.516371 ] } }
,
{ "type": "Feature", "properties": { "osm_id": "1374441017", "lastchange": "", "code": "2001", "fclass": "police", "name": "Sektor Mataram", "name_en": "", "source": "" }, "geometry": { "type": "Point", "coordinates": [ 116.113618, -8.592160 ] } }
,
{ "type": "Feature", "properties": { "osm_id": "1381603275", "lastchange": "", "code": "2001", "fclass": "police", "name": "KPPP", "name_en": "", "source": "" }, "geometry": { "type": "Point", "coordinates": [ 118.715316, -8.448840 ] } }
,
{ "type": "Feature", "properties": { "osm_id": "1382532320", "lastchange": "", "code": "2001", "fclass": "police", "name": "polsek mejayan", "name_en": "", "source": "" }, "geometry": { "type": "Point", "coordinates": [ 111.658484, -7.544661 ] } }
,
{ "type": "Feature", "properties": { "osm_id": "1386185675", "lastchange": "", "code": "2001", "fclass": "police", "name": "Pos Polisi", "name_en": "", "source": "" }, "geometry": { "type": "Point", "coordinates": [ 118.696408, -8.558205 ] } }
,
{ "type": "Feature", "properties": { "osm_id": "1393201627", "lastchange": "", "code": "2001", "fclass": "police", "name": "Polsekta Kelapa 5", "name_en": "", "source": "" }, "geometry": { "type": "Point", "coordinates": [ 123.609438, -10.149432 ] } }
,
{ "type": "Feature", "properties": { "osm_id": "1407056585", "lastchange": "", "code": "2001", "fclass": "police", "name": "Polresta Solo", "name_en": "", "source": "" }, "geometry": { "type": "Point", "coordinates": [ 110.802763, -7.554795 ] } }
,
{ "type": "Feature", "properties": { "osm_id": "1407107253", "lastchange": "", "code": "2001", "fclass": "police", "name": "Polsek Baron", "name_en": "", "source": "" }, "geometry": { "type": "Point", "coordinates": [ 110.809951, -7.571812 ] } }
,
{ "type": "Feature", "properties": { "osm_id": "1409375163", "lastchange": "", "code": "2001", "fclass": "police", "name": "polsek kuta", "name_en": "", "source": "" }, "geometry": { "type": "Point", "coordinates": [ 116.275606, -8.885570 ] } }
,
{ "type": "Feature", "properties": { "osm_id": "1411232657", "lastchange": "", "code": "2001", "fclass": "police", "name": "Sektor Janapria", "name_en": "", "source": "" }, "geometry": { "type": "Point", "coordinates": [ 116.400015, -8.694139 ] } }
,
{ "type": "Feature", "properties": { "osm_id": "1418851793", "lastchange": "", "code": "2001", "fclass": "police", "name": "Polsek Rasanae Timur", "name_en": "", "source": "" }, "geometry": { "type": "Point", "coordinates": [ 118.771305, -8.485010 ] } }
,
{ "type": "Feature", "properties": { "osm_id": "1425720707", "lastchange": "", "code": "2001", "fclass": "police", "name": "Polsek Tomohon Tengah", "name_en": "", "source": "" }, "geometry": { "type": "Point", "coordinates": [ 124.837823, 1.333344 ] } }
,
{ "type": "Feature", "properties": { "osm_id": "1441078980", "lastchange": "", "code": "2001", "fclass": "police", "name": "PolRes Kapuas Hulu", "name_en": "", "source": "" }, "geometry": { "type": "Point", "coordinates": [ 112.924802, 0.863615 ] } }
,
{ "type": "Feature", "properties": { "osm_id": "1441078982", "lastchange": "", "code": "2001", "fclass": "police", "name": "PolRes Kapuas Hulu", "name_en": "", "source": "" }, "geometry": { "type": "Point", "coordinates": [ 112.924267, 0.876502 ] } }
,
{ "type": "Feature", "properties": { "osm_id": "1441079035", "lastchange": "", "code": "2001", "fclass": "police", "name": "Resort Putussibau Selatan", "name_en": "", "source": "" }, "geometry": { "type": "Point", "coordinates": [ 112.942433, 0.829277 ] } }
,
{ "type": "Feature", "properties": { "osm_id": "1450228293", "lastchange": "", "code": "2001", "fclass": "police", "name": "Polsek Cikeruh", "name_en": "", "source": "" }, "geometry": { "type": "Point", "coordinates": [ 107.771702, -6.933733 ] } }
,
{ "type": "Feature", "properties": { "osm_id": "1456159971", "lastchange": "", "code": "2001", "fclass": "police", "name": "Pos Babinsa, Windsor", "name_en": "", "source": "" }, "geometry": { "type": "Point", "coordinates": [ 104.008300, 1.138440 ] } }
,
{ "type": "Feature", "properties": { "osm_id": "1533569977", "lastchange": "", "code": "2001", "fclass": "police", "name": "POLSEK DENPASAR SELATAN", "name_en": "", "source": "" }, "geometry": { "type": "Point", "coordinates": [ 115.259257, -8.676460 ] } }
,
{ "type": "Feature", "properties": { "osm_id": "1533605724", "lastchange": "", "code": "2001", "fclass": "police", "name": "pos polisi sanur", "name_en": "", "source": "" }, "geometry": { "type": "Point", "coordinates": [ 115.259642, -8.674165 ] } }
,
{ "type": "Feature", "properties": { "osm_id": "1533610045", "lastchange": "", "code": "2001", "fclass": "police", "name": "Pos Jaga Polisi", "name_en": "", "source": "" }, "geometry": { "type": "Point", "coordinates": [ 115.252207, -8.674019 ] } }
,
{ "type": "Feature", "properties": { "osm_id": "1541707551", "lastchange": "", "code": "2001", "fclass": "police", "name": "Pos Polisi Pos Pengumben", "name_en": "", "source": "" }, "geometry": { "type": "Point", "coordinates": [ 106.769770, -6.217010 ] } }
,
{ "type": "Feature", "properties": { "osm_id": "1543850443", "lastchange": "", "code": "2001", "fclass": "police", "name": "Polsek Boyolali", "name_en": "", "source": "" }, "geometry": { "type": "Point", "coordinates": [ 110.601471, -7.532980 ] } }
,
{ "type": "Feature", "properties": { "osm_id": "1543935187", "lastchange": "", "code": "2001", "fclass": "police", "name": "kantor polisi", "name_en": "", "source": "" }, "geometry": { "type": "Point", "coordinates": [ 112.523005, -7.871970 ] } }
,
{ "type": "Feature", "properties": { "osm_id": "1544240890", "lastchange": "", "code": "2001", "fclass": "police", "name": "lembaga pemasyarakatan", "name_en": "", "source": "" }, "geometry": { "type": "Point", "coordinates": [ 112.638338, -7.958700 ] } }
,
{ "type": "Feature", "properties": { "osm_id": "1547396728", "lastchange": "", "code": "2001", "fclass": "police", "name": "Polsek Samarinda Seberang", "name_en": "", "source": "" }, "geometry": { "type": "Point", "coordinates": [ 117.144203, -0.514385 ] } }
,
{ "type": "Feature", "properties": { "osm_id": "1550946363", "lastchange": "", "code": "2001", "fclass": "police", "name": "Kantor Dir. Lalin Polda Sumbar", "name_en": "", "source": "" }, "geometry": { "type": "Point", "coordinates": [ 100.357461, -0.964027 ] } }
,
{ "type": "Feature", "properties": { "osm_id": "1570341859", "lastchange": "", "code": "2001", "fclass": "police", "name": "Polres Palu", "name_en": "", "source": "" }, "geometry": { "type": "Point", "coordinates": [ 119.872389, -0.893991 ] } }
,
{ "type": "Feature", "properties": { "osm_id": "1570341861", "lastchange": "", "code": "2001", "fclass": "police", "name": "Polsek Palu Barat", "name_en": "", "source": "" }, "geometry": { "type": "Point", "coordinates": [ 119.854853, -0.895030 ] } }
,
{ "type": "Feature", "properties": { "osm_id": "1570341864", "lastchange": "", "code": "2001", "fclass": "police", "name": "Polsek Palu Selatan", "name_en": "", "source": "" }, "geometry": { "type": "Point", "coordinates": [ 119.884221, -0.919894 ] } }
,
{ "type": "Feature", "properties": { "osm_id": "1570341872", "lastchange": "", "code": "2001", "fclass": "police", "name": "Polsek Palu Timur", "name_en": "", "source": "" }, "geometry": { "type": "Point", "coordinates": [ 119.881290, -0.860208 ] } }
,
{ "type": "Feature", "properties": { "osm_id": "1585768073", "lastchange": "", "code": "2001", "fclass": "police", "name": "POLSEK Embaloh Hulu", "name_en": "", "source": "" }, "geometry": { "type": "Point", "coordinates": [ 112.375964, 1.150623 ] } }
,
{ "type": "Feature", "properties": { "osm_id": "1588110884", "lastchange": "", "code": "2001", "fclass": "police", "name": "Polsek Donggo", "name_en": "", "source": "" }, "geometry": { "type": "Point", "coordinates": [ 118.595450, -8.425112 ] } }
,
{ "type": "Feature", "properties": { "osm_id": "1604522369", "lastchange": "", "code": "2001", "fclass": "police", "name": "Pos Polisi", "name_en": "", "source": "" }, "geometry": { "type": "Point", "coordinates": [ 123.605097, -10.190974 ] } }
,
{ "type": "Feature", "properties": { "osm_id": "1611867319", "lastchange": "", "code": "2001", "fclass": "police", "name": "Polsek", "name_en": "", "source": "" }, "geometry": { "type": "Point", "coordinates": [ 117.131159, -0.483168 ] } }
,
{ "type": "Feature", "properties": { "osm_id": "1619908695", "lastchange": "", "code": "2001", "fclass": "police", "name": "", "name_en": "", "source": "" }, "geometry": { "type": "Point", "coordinates": [ 116.279359, -8.709136 ] } }
,
{ "type": "Feature", "properties": { "osm_id": "1628872994", "lastchange": "", "code": "2001", "fclass": "police", "name": "Polsekta", "name_en": "", "source": "" }, "geometry": { "type": "Point", "coordinates": [ 112.164777, -8.102287 ] } }
,
{ "type": "Feature", "properties": { "osm_id": "1628892279", "lastchange": "", "code": "2001", "fclass": "police", "name": "Polresta Blitar", "name_en": "", "source": "" }, "geometry": { "type": "Point", "coordinates": [ 112.172272, -8.097029 ] } }
,
{ "type": "Feature", "properties": { "osm_id": "1631214011", "lastchange": "", "code": "2001", "fclass": "police", "name": "Polsek Srengat", "name_en": "", "source": "" }, "geometry": { "type": "Point", "coordinates": [ 112.061918, -8.061691 ] } }
,
{ "type": "Feature", "properties": { "osm_id": "1633578307", "lastchange": "", "code": "2001", "fclass": "police", "name": "Pos Polisi", "name_en": "", "source": "" }, "geometry": { "type": "Point", "coordinates": [ 113.822168, -7.911895 ] } }
,
{ "type": "Feature", "properties": { "osm_id": "1635180913", "lastchange": "", "code": "2001", "fclass": "police", "name": "POS KORAMIL", "name_en": "", "source": "" }, "geometry": { "type": "Point", "coordinates": [ 124.226539, -10.067947 ] } }
,
{ "type": "Feature", "properties": { "osm_id": "1654015715", "lastchange": "", "code": "2001", "fclass": "police", "name": "Polsek Mantrijeron", "name_en": "", "source": "" }, "geometry": { "type": "Point", "coordinates": [ 110.362836, -7.814531 ] } }
,
{ "type": "Feature", "properties": { "osm_id": "1654259791", "lastchange": "", "code": "2001", "fclass": "police", "name": "", "name_en": "", "source": "" }, "geometry": { "type": "Point", "coordinates": [ 107.581655, -6.881906 ] } }
,
{ "type": "Feature", "properties": { "osm_id": "1657674476", "lastchange": "", "code": "2001", "fclass": "police", "name": "Polres Metro Jakarta Selatan", "name_en": "", "source": "" }, "geometry": { "type": "Point", "coordinates": [ 106.798509, -6.253291 ] } }
,
{ "type": "Feature", "properties": { "osm_id": "1662098890", "lastchange": "", "code": "2001", "fclass": "police", "name": "Polsek Kuanfatu", "name_en": "", "source": "" }, "geometry": { "type": "Point", "coordinates": [ 124.445184, -10.023607 ] } }
,
{ "type": "Feature", "properties": { "osm_id": "1667242456", "lastchange": "", "code": "2001", "fclass": "police", "name": "Ktr. POLRES Sumba Barat", "name_en": "", "source": "" }, "geometry": { "type": "Point", "coordinates": [ 119.411415, -9.631423 ] } }
,
{ "type": "Feature", "properties": { "osm_id": "1667312954", "lastchange": "", "code": "2001", "fclass": "police", "name": "Polsek Kodi Utara", "name_en": "", "source": "" }, "geometry": { "type": "Point", "coordinates": [ 119.036049, -9.505545 ] } }
,
{ "type": "Feature", "properties": { "osm_id": "1668648984", "lastchange": "", "code": "2001", "fclass": "police", "name": "Polsek Bondokodi", "name_en": "", "source": "" }, "geometry": { "type": "Point", "coordinates": [ 118.994295, -9.594268 ] } }
,
{ "type": "Feature", "properties": { "osm_id": "1668648985", "lastchange": "", "code": "2001", "fclass": "police", "name": "Polsek Walandimu", "name_en": "", "source": "" }, "geometry": { "type": "Point", "coordinates": [ 119.041647, -9.628681 ] } }
,
{ "type": "Feature", "properties": { "osm_id": "1672917672", "lastchange": "", "code": "2001", "fclass": "police", "name": "Polsek Lamboya", "name_en": "", "source": "" }, "geometry": { "type": "Point", "coordinates": [ 119.357657, -9.720550 ] } }
,
{ "type": "Feature", "properties": { "osm_id": "1672998895", "lastchange": "", "code": "2001", "fclass": "police", "name": "Mako Brimob", "name_en": "", "source": "" }, "geometry": { "type": "Point", "coordinates": [ 119.392450, -9.654144 ] } }
,
{ "type": "Feature", "properties": { "osm_id": "1673016301", "lastchange": "", "code": "2001", "fclass": "police", "name": "pos polisi", "name_en": "", "source": "" }, "geometry": { "type": "Point", "coordinates": [ 106.844392, -6.133308 ] } }
,
{ "type": "Feature", "properties": { "osm_id": "1673095657", "lastchange": "", "code": "2001", "fclass": "police", "name": "POSPOL TUGU", "name_en": "", "source": "" }, "geometry": { "type": "Point", "coordinates": [ 106.916745, -6.119778 ] } }
,
{ "type": "Feature", "properties": { "osm_id": "1675344757", "lastchange": "", "code": "2001", "fclass": "police", "name": "Pos POLISI", "name_en": "", "source": "" }, "geometry": { "type": "Point", "coordinates": [ 106.845375, -6.157153 ] } }
,
{ "type": "Feature", "properties": { "osm_id": "1675448886", "lastchange": "", "code": "2001", "fclass": "police", "name": "POS POLISI", "name_en": "", "source": "" }, "geometry": { "type": "Point", "coordinates": [ 106.840348, -6.162931 ] } }
,
{ "type": "Feature", "properties": { "osm_id": "1675453091", "lastchange": "", "code": "2001", "fclass": "police", "name": "Polsek", "name_en": "", "source": "" }, "geometry": { "type": "Point", "coordinates": [ 106.811860, -6.181148 ] } }
,
{ "type": "Feature", "properties": { "osm_id": "1675487577", "lastchange": "", "code": "2001", "fclass": "police", "name": "Kantor Polisi", "name_en": "", "source": "" }, "geometry": { "type": "Point", "coordinates": [ 106.807873, -6.166230 ] } }
,
{ "type": "Feature", "properties": { "osm_id": "1677965744", "lastchange": "", "code": "2001", "fclass": "police", "name": "Simpang BRI", "name_en": "", "source": "" }, "geometry": { "type": "Point", "coordinates": [ 116.530818, -8.647277 ] } }
,
{ "type": "Feature", "properties": { "osm_id": "1677965746", "lastchange": "", "code": "2001", "fclass": "police", "name": "Lantas Polres Lotim", "name_en": "", "source": "" }, "geometry": { "type": "Point", "coordinates": [ 116.534005, -8.649335 ] } }
,
{ "type": "Feature", "properties": { "osm_id": "1677965846", "lastchange": "", "code": "2001", "fclass": "police", "name": "Polres Lotim", "name_en": "", "source": "" }, "geometry": { "type": "Point", "coordinates": [ 116.534579, -8.650475 ] } }
,
{ "type": "Feature", "properties": { "osm_id": "1678011458", "lastchange": "", "code": "2001", "fclass": "police", "name": "Pos Polisi Pancor", "name_en": "", "source": "" }, "geometry": { "type": "Point", "coordinates": [ 116.523646, -8.645776 ] } }
,
{ "type": "Feature", "properties": { "osm_id": "1682900990", "lastchange": "", "code": "2001", "fclass": "police", "name": "Pospol Kebun Pala", "name_en": "", "source": "" }, "geometry": { "type": "Point", "coordinates": [ 106.874900, -6.250880 ] } }
,
{ "type": "Feature", "properties": { "osm_id": "1682900992", "lastchange": "", "code": "2001", "fclass": "police", "name": "Pospol Satlantas", "name_en": "", "source": "" }, "geometry": { "type": "Point", "coordinates": [ 106.874854, -6.248091 ] } }
,
{ "type": "Feature", "properties": { "osm_id": "1682908828", "lastchange": "", "code": "2001", "fclass": "police", "name": "POSPOL Gedong", "name_en": "", "source": "" }, "geometry": { "type": "Point", "coordinates": [ 106.865372, -6.305081 ] } }
,
{ "type": "Feature", "properties": { "osm_id": "1684825797", "lastchange": "", "code": "2001", "fclass": "police", "name": "", "name_en": "", "source": "" }, "geometry": { "type": "Point", "coordinates": [ 122.843256, -10.873931 ] } }
,
{ "type": "Feature", "properties": { "osm_id": "1689774293", "lastchange": "", "code": "2001", "fclass": "police", "name": "POLRES KARINDING", "name_en": "", "source": "" }, "geometry": { "type": "Point", "coordinates": [ 120.271070, -9.656262 ] } }
,
{ "type": "Feature", "properties": { "osm_id": "1690360537", "lastchange": "", "code": "2001", "fclass": "police", "name": "Polsek Pekat", "name_en": "", "source": "" }, "geometry": { "type": "Point", "coordinates": [ 117.716987, -8.220364 ] } }
,
{ "type": "Feature", "properties": { "osm_id": "1690405899", "lastchange": "", "code": "2001", "fclass": "police", "name": "Pos AL", "name_en": "", "source": "" }, "geometry": { "type": "Point", "coordinates": [ 117.710054, -8.205501 ] } }
,
{ "type": "Feature", "properties": { "osm_id": "1690738483", "lastchange": "", "code": "2001", "fclass": "police", "name": "POLDA NTT", "name_en": "", "source": "" }, "geometry": { "type": "Point", "coordinates": [ 123.596917, -10.177413 ] } }
,
{ "type": "Feature", "properties": { "osm_id": "1691650801", "lastchange": "", "code": "2001", "fclass": "police", "name": "Polsek Manggelewa", "name_en": "", "source": "" }, "geometry": { "type": "Point", "coordinates": [ 118.333616, -8.523253 ] } }
,
{ "type": "Feature", "properties": { "osm_id": "1691651072", "lastchange": "", "code": "2001", "fclass": "police", "name": "Polsubsek Duri Kosambi", "name_en": "", "source": "" }, "geometry": { "type": "Point", "coordinates": [ 106.724095, -6.166866 ] } }
,
{ "type": "Feature", "properties": { "osm_id": "1691655078", "lastchange": "", "code": "2001", "fclass": "police", "name": "Polsek Tanjung Duren", "name_en": "", "source": "" }, "geometry": { "type": "Point", "coordinates": [ 106.789367, -6.173958 ] } }
,
{ "type": "Feature", "properties": { "osm_id": "1692911979", "lastchange": "", "code": "2001", "fclass": "police", "name": "Polsek Kie", "name_en": "", "source": "" }, "geometry": { "type": "Point", "coordinates": [ 124.549456, -9.849623 ] } }
,
{ "type": "Feature", "properties": { "osm_id": "1692929340", "lastchange": "", "code": "2001", "fclass": "police", "name": "Polsek Batu Putih", "name_en": "", "source": "" }, "geometry": { "type": "Point", "coordinates": [ 124.123267, -9.973058 ] } }
,
{ "type": "Feature", "properties": { "osm_id": "1694282311", "lastchange": "", "code": "2001", "fclass": "police", "name": "Pospol Kedoya", "name_en": "", "source": "" }, "geometry": { "type": "Point", "coordinates": [ 106.762910, -6.167813 ] } }
,
{ "type": "Feature", "properties": { "osm_id": "1694338361", "lastchange": "", "code": "2001", "fclass": "police", "name": "Polsek pulau seribu selatan", "name_en": "", "source": "" }, "geometry": { "type": "Point", "coordinates": [ 106.509401, -5.802065 ] } }
,
{ "type": "Feature", "properties": { "osm_id": "1695722353", "lastchange": "", "code": "2001", "fclass": "police", "name": "Pos Polisi Blok M", "name_en": "", "source": "" }, "geometry": { "type": "Point", "coordinates": [ 106.799374, -6.243859 ] } }
,
{ "type": "Feature", "properties": { "osm_id": "1697066901", "lastchange": "", "code": "2001", "fclass": "police", "name": "Polres Jember", "name_en": "", "source": "" }, "geometry": { "type": "Point", "coordinates": [ 113.701134, -8.173145 ] } }
,
{ "type": "Feature", "properties": { "osm_id": "1697246081", "lastchange": "", "code": "2001", "fclass": "police", "name": "Samsat Polres Jember", "name_en": "", "source": "" }, "geometry": { "type": "Point", "coordinates": [ 113.707228, -8.179029 ] } }
,
{ "type": "Feature", "properties": { "osm_id": "1699840605", "lastchange": "", "code": "2001", "fclass": "police", "name": "Patroli Keamanan Laut", "name_en": "", "source": "" }, "geometry": { "type": "Point", "coordinates": [ 106.600225, -5.735842 ] } }
,
{ "type": "Feature", "properties": { "osm_id": "1699888370", "lastchange": "", "code": "2001", "fclass": "police", "name": "", "name_en": "", "source": "" }, "geometry": { "type": "Point", "coordinates": [ 113.698078, -8.170285 ] } }
,
{ "type": "Feature", "properties": { "osm_id": "1699892475", "lastchange": "", "code": "2001", "fclass": "police", "name": "Pos Kamling", "name_en": "", "source": "" }, "geometry": { "type": "Point", "coordinates": [ 106.600012, -5.738907 ] } }
,
{ "type": "Feature", "properties": { "osm_id": "1700556146", "lastchange": "", "code": "2001", "fclass": "police", "name": "", "name_en": "", "source": "" }, "geometry": { "type": "Point", "coordinates": [ 107.599486, -6.901864 ] } }
,
{ "type": "Feature", "properties": { "osm_id": "1704052836", "lastchange": "", "code": "2001", "fclass": "police", "name": "Polres Jayawijaya", "name_en": "", "source": "" }, "geometry": { "type": "Point", "coordinates": [ 138.946029, -4.095318 ] } }
,
{ "type": "Feature", "properties": { "osm_id": "1704549045", "lastchange": "", "code": "2001", "fclass": "police", "name": "Kantor Polisi Singosari", "name_en": "", "source": "" }, "geometry": { "type": "Point", "coordinates": [ 112.662877, -7.901181 ] } }
,
{ "type": "Feature", "properties": { "osm_id": "1704748718", "lastchange": "", "code": "2001", "fclass": "police", "name": "Polres Tulungagung", "name_en": "", "source": "" }, "geometry": { "type": "Point", "coordinates": [ 111.906331, -8.065521 ] } }
,
{ "type": "Feature", "properties": { "osm_id": "1706608909", "lastchange": "", "code": "2001", "fclass": "police", "name": "POLRES", "name_en": "", "source": "" }, "geometry": { "type": "Point", "coordinates": [ 107.140574, -6.819111 ] } }
,
{ "type": "Feature", "properties": { "osm_id": "1709438104", "lastchange": "", "code": "2001", "fclass": "police", "name": "Police Station", "name_en": "", "source": "" }, "geometry": { "type": "Point", "coordinates": [ 115.096600, -8.101658 ] } }
,
{ "type": "Feature", "properties": { "osm_id": "1716180253", "lastchange": "", "code": "2001", "fclass": "police", "name": "Pos polisi", "name_en": "", "source": "" }, "geometry": { "type": "Point", "coordinates": [ 118.510825, -8.477806 ] } }
,
{ "type": "Feature", "properties": { "osm_id": "1723013792", "lastchange": "", "code": "2001", "fclass": "police", "name": "Polsek", "name_en": "", "source": "" }, "geometry": { "type": "Point", "coordinates": [ 118.573843, -8.524846 ] } }
,
{ "type": "Feature", "properties": { "osm_id": "1734900946", "lastchange": "", "code": "2001", "fclass": "police", "name": "", "name_en": "", "source": "" }, "geometry": { "type": "Point", "coordinates": [ 113.703104, -8.167855 ] } }
,
{ "type": "Feature", "properties": { "osm_id": "1741457016", "lastchange": "", "code": "2001", "fclass": "police", "name": "Polsek Pamulang", "name_en": "", "source": "" }, "geometry": { "type": "Point", "coordinates": [ 106.735788, -6.344592 ] } }
,
{ "type": "Feature", "properties": { "osm_id": "1747640572", "lastchange": "", "code": "2001", "fclass": "police", "name": "Police Office", "name_en": "", "source": "" }, "geometry": { "type": "Point", "coordinates": [ 119.520961, -3.844829 ] } }
,
{ "type": "Feature", "properties": { "osm_id": "1752486426", "lastchange": "", "code": "2001", "fclass": "police", "name": "POLSEK Leuwiliang", "name_en": "", "source": "" }, "geometry": { "type": "Point", "coordinates": [ 106.638923, -6.573140 ] } }
,
{ "type": "Feature", "properties": { "osm_id": "1766084728", "lastchange": "", "code": "2001", "fclass": "police", "name": "Polsek Babelan", "name_en": "", "source": "" }, "geometry": { "type": "Point", "coordinates": [ 107.044955, -6.168805 ] } }
,
{ "type": "Feature", "properties": { "osm_id": "1766443394", "lastchange": "", "code": "2001", "fclass": "police", "name": "Polsek Wlingi", "name_en": "", "source": "" }, "geometry": { "type": "Point", "coordinates": [ 112.326013, -8.078834 ] } }
,
{ "type": "Feature", "properties": { "osm_id": "1766458436", "lastchange": "", "code": "2001", "fclass": "police", "name": "Polsek Talun", "name_en": "", "source": "" }, "geometry": { "type": "Point", "coordinates": [ 112.288515, -8.090485 ] } }
,
{ "type": "Feature", "properties": { "osm_id": "1766473106", "lastchange": "", "code": "2001", "fclass": "police", "name": "Polsekta Sananwetan", "name_en": "", "source": "" }, "geometry": { "type": "Point", "coordinates": [ 112.182470, -8.100214 ] } }
,
{ "type": "Feature", "properties": { "osm_id": "1769070203", "lastchange": "", "code": "2001", "fclass": "police", "name": "polsek karangploso", "name_en": "", "source": "" }, "geometry": { "type": "Point", "coordinates": [ 112.595625, -7.893288 ] } }
,
{ "type": "Feature", "properties": { "osm_id": "1769202232", "lastchange": "", "code": "2001", "fclass": "police", "name": "Polsek Ngaglik", "name_en": "", "source": "" }, "geometry": { "type": "Point", "coordinates": [ 110.400727, -7.723461 ] } }
,
{ "type": "Feature", "properties": { "osm_id": "1769331236", "lastchange": "", "code": "2001", "fclass": "police", "name": "Polsek Bungi", "name_en": "", "source": "" }, "geometry": { "type": "Point", "coordinates": [ 122.670602, -5.399229 ] } }
,
{ "type": "Feature", "properties": { "osm_id": "1769565068", "lastchange": "", "code": "2001", "fclass": "police", "name": "", "name_en": "", "source": "" }, "geometry": { "type": "Point", "coordinates": [ 110.374725, -7.782750 ] } }
,
{ "type": "Feature", "properties": { "osm_id": "1777080541", "lastchange": "", "code": "2001", "fclass": "police", "name": "Kantor Polisi Pagutan", "name_en": "", "source": "" }, "geometry": { "type": "Point", "coordinates": [ 116.115365, -8.610943 ] } }
,
{ "type": "Feature", "properties": { "osm_id": "1780053726", "lastchange": "", "code": "2001", "fclass": "police", "name": "SEKTOR SENGGIGI", "name_en": "", "source": "" }, "geometry": { "type": "Point", "coordinates": [ 116.044571, -8.495678 ] } }
,
{ "type": "Feature", "properties": { "osm_id": "1782507188", "lastchange": "", "code": "2001", "fclass": "police", "name": "Pos Polisi EJIP", "name_en": "", "source": "" }, "geometry": { "type": "Point", "coordinates": [ 107.126588, -6.325108 ] } }
,
{ "type": "Feature", "properties": { "osm_id": "1783251011", "lastchange": "", "code": "2001", "fclass": "police", "name": "Citra Indah Security", "name_en": "", "source": "" }, "geometry": { "type": "Point", "coordinates": [ 107.048535, -6.439830 ] } }
,
{ "type": "Feature", "properties": { "osm_id": "1787010404", "lastchange": "", "code": "2001", "fclass": "police", "name": "Polsek Lubuk Alung", "name_en": "", "source": "" }, "geometry": { "type": "Point", "coordinates": [ 100.286702, -0.665986 ] } }
,
{ "type": "Feature", "properties": { "osm_id": "1787033925", "lastchange": "", "code": "2001", "fclass": "police", "name": "Polantas Lubuk Alung", "name_en": "", "source": "" }, "geometry": { "type": "Point", "coordinates": [ 100.290776, -0.683757 ] } }
,
{ "type": "Feature", "properties": { "osm_id": "1787256232", "lastchange": "", "code": "2001", "fclass": "police", "name": "polsek cakranegara", "name_en": "", "source": "" }, "geometry": { "type": "Point", "coordinates": [ 116.146563, -8.591242 ] } }
,
{ "type": "Feature", "properties": { "osm_id": "1789944067", "lastchange": "", "code": "2001", "fclass": "police", "name": "Security UNPAD", "name_en": "", "source": "" }, "geometry": { "type": "Point", "coordinates": [ 107.771926, -6.932285 ] } }
,
{ "type": "Feature", "properties": { "osm_id": "1789990952", "lastchange": "", "code": "2001", "fclass": "police", "name": "", "name_en": "", "source": "" }, "geometry": { "type": "Point", "coordinates": [ 107.769603, -6.921730 ] } }
,
{ "type": "Feature", "properties": { "osm_id": "1793985064", "lastchange": "", "code": "2001", "fclass": "police", "name": "Polsek Trucuk", "name_en": "", "source": "" }, "geometry": { "type": "Point", "coordinates": [ 110.667429, -7.722029 ] } }
,
{ "type": "Feature", "properties": { "osm_id": "1795211842", "lastchange": "", "code": "2001", "fclass": "police", "name": "Polsek Cawas", "name_en": "", "source": "" }, "geometry": { "type": "Point", "coordinates": [ 110.694322, -7.757449 ] } }
,
{ "type": "Feature", "properties": { "osm_id": "1795287421", "lastchange": "", "code": "2001", "fclass": "police", "name": "Polres Klaten", "name_en": "", "source": "" }, "geometry": { "type": "Point", "coordinates": [ 110.614051, -7.703542 ] } }
,
{ "type": "Feature", "properties": { "osm_id": "1804025109", "lastchange": "", "code": "2001", "fclass": "police", "name": "Army Camp Temajuk", "name_en": "", "source": "" }, "geometry": { "type": "Point", "coordinates": [ 109.600607, 2.005738 ] } }
,
{ "type": "Feature", "properties": { "osm_id": "1804276101", "lastchange": "", "code": "2001", "fclass": "police", "name": "", "name_en": "", "source": "" }, "geometry": { "type": "Point", "coordinates": [ 106.814551, -6.557162 ] } }
,
{ "type": "Feature", "properties": { "osm_id": "1804374683", "lastchange": "", "code": "2001", "fclass": "police", "name": "Polres Tanah Laut", "name_en": "", "source": "" }, "geometry": { "type": "Point", "coordinates": [ 114.768638, -3.802233 ] } }
,
{ "type": "Feature", "properties": { "osm_id": "1805714688", "lastchange": "", "code": "2001", "fclass": "police", "name": "Polsek Batu Ampar", "name_en": "", "source": "" }, "geometry": { "type": "Point", "coordinates": [ 114.821691, -3.882700 ] } }
,
{ "type": "Feature", "properties": { "osm_id": "1805714694", "lastchange": "", "code": "2001", "fclass": "police", "name": "Polsek", "name_en": "", "source": "" }, "geometry": { "type": "Point", "coordinates": [ 114.712834, -3.950506 ] } }
,
{ "type": "Feature", "properties": { "osm_id": "1811147423", "lastchange": "", "code": "2001", "fclass": "police", "name": "Polres Manggarai Barat", "name_en": "", "source": "" }, "geometry": { "type": "Point", "coordinates": [ 119.892307, -8.492378 ] } }
,
{ "type": "Feature", "properties": { "osm_id": "1812262950", "lastchange": "", "code": "2001", "fclass": "police", "name": "Polsek Nggorang", "name_en": "", "source": "" }, "geometry": { "type": "Point", "coordinates": [ 119.916426, -8.546400 ] } }
,
{ "type": "Feature", "properties": { "osm_id": "1827309383", "lastchange": "", "code": "2001", "fclass": "police", "name": "Polsek Gunungsari", "name_en": "", "source": "" }, "geometry": { "type": "Point", "coordinates": [ 116.106845, -8.545356 ] } }
,
{ "type": "Feature", "properties": { "osm_id": "1830616316", "lastchange": "", "code": "2001", "fclass": "police", "name": "", "name_en": "", "source": "" }, "geometry": { "type": "Point", "coordinates": [ 115.140877, -8.825252 ] } }
,
{ "type": "Feature", "properties": { "osm_id": "1837297067", "lastchange": "", "code": "2001", "fclass": "police", "name": "Koramil", "name_en": "", "source": "" }, "geometry": { "type": "Point", "coordinates": [ 116.100111, -8.540398 ] } }
,
{ "type": "Feature", "properties": { "osm_id": "1839421848", "lastchange": "", "code": "2001", "fclass": "police", "name": "Polres Bantul", "name_en": "", "source": "" }, "geometry": { "type": "Point", "coordinates": [ 110.326766, -7.890775 ] } }
,
{ "type": "Feature", "properties": { "osm_id": "1843592053", "lastchange": "", "code": "2001", "fclass": "police", "name": "POS PENJAGAAN TERATAK", "name_en": "", "source": "" }, "geometry": { "type": "Point", "coordinates": [ 116.331979, -8.587630 ] } }
,
{ "type": "Feature", "properties": { "osm_id": "1844809265", "lastchange": "", "code": "2001", "fclass": "police", "name": "Pos Kota", "name_en": "", "source": "" }, "geometry": { "type": "Point", "coordinates": [ 118.725784, -8.453373 ] } }
,
{ "type": "Feature", "properties": { "osm_id": "1846311136", "lastchange": "", "code": "2001", "fclass": "police", "name": "Pos Polisi A. Yani", "name_en": "", "source": "" }, "geometry": { "type": "Point", "coordinates": [ 111.900449, -7.606057 ] } }
,
{ "type": "Feature", "properties": { "osm_id": "1847521137", "lastchange": "", "code": "2001", "fclass": "police", "name": "", "name_en": "", "source": "" }, "geometry": { "type": "Point", "coordinates": [ 110.362202, -7.758652 ] } }
,
{ "type": "Feature", "properties": { "osm_id": "1847844720", "lastchange": "", "code": "2001", "fclass": "police", "name": "POLRES Kuningan", "name_en": "", "source": "" }, "geometry": { "type": "Point", "coordinates": [ 108.519947, -6.971841 ] } }
,
{ "type": "Feature", "properties": { "osm_id": "1848345388", "lastchange": "", "code": "2001", "fclass": "police", "name": "Pos Polisi Pamulang", "name_en": "", "source": "" }, "geometry": { "type": "Point", "coordinates": [ 106.749620, -6.347126 ] } }
,
{ "type": "Feature", "properties": { "osm_id": "1849643991", "lastchange": "", "code": "2001", "fclass": "police", "name": "SEKTOR BATUKLIANG UTARA", "name_en": "", "source": "" }, "geometry": { "type": "Point", "coordinates": [ 116.327730, -8.588064 ] } }
,
{ "type": "Feature", "properties": { "osm_id": "1852220110", "lastchange": "", "code": "2001", "fclass": "police", "name": "Gayo Lues Police Department", "name_en": "", "source": "" }, "geometry": { "type": "Point", "coordinates": [ 97.333109, 3.999690 ] } }
,
{ "type": "Feature", "properties": { "osm_id": "1868691729", "lastchange": "", "code": "2001", "fclass": "police", "name": "Pos Polisi Kalimalang", "name_en": "", "source": "" }, "geometry": { "type": "Point", "coordinates": [ 106.906312, -6.246293 ] } }
,
{ "type": "Feature", "properties": { "osm_id": "1871132754", "lastchange": "", "code": "2001", "fclass": "police", "name": "", "name_en": "", "source": "" }, "geometry": { "type": "Point", "coordinates": [ 115.507133, -8.532628 ] } }
,
{ "type": "Feature", "properties": { "osm_id": "1878802594", "lastchange": "", "code": "2001", "fclass": "police", "name": "POLRES MATARAM", "name_en": "", "source": "" }, "geometry": { "type": "Point", "coordinates": [ 116.083158, -8.577418 ] } }
,
{ "type": "Feature", "properties": { "osm_id": "1880465215", "lastchange": "", "code": "2001", "fclass": "police", "name": "Markas Besar Polisi Wilayah Kota Besar Bandung", "name_en": "", "source": "" }, "geometry": { "type": "Point", "coordinates": [ 107.610774, -6.914026 ] } }
,
{ "type": "Feature", "properties": { "osm_id": "1884272247", "lastchange": "", "code": "2001", "fclass": "police", "name": "", "name_en": "", "source": "" }, "geometry": { "type": "Point", "coordinates": [ 110.413416, -7.117012 ] } }
,
{ "type": "Feature", "properties": { "osm_id": "1884272253", "lastchange": "", "code": "2001", "fclass": "police", "name": "", "name_en": "", "source": "" }, "geometry": { "type": "Point", "coordinates": [ 110.403930, -7.129799 ] } }
,
{ "type": "Feature", "properties": { "osm_id": "1884272257", "lastchange": "", "code": "2001", "fclass": "police", "name": "", "name_en": "", "source": "" }, "geometry": { "type": "Point", "coordinates": [ 110.403868, -7.130269 ] } }
,
{ "type": "Feature", "properties": { "osm_id": "1892851765", "lastchange": "", "code": "2001", "fclass": "police", "name": "Pos Polisi", "name_en": "", "source": "" }, "geometry": { "type": "Point", "coordinates": [ 114.402903, -2.977721 ] } }
,
{ "type": "Feature", "properties": { "osm_id": "1897739368", "lastchange": "", "code": "2001", "fclass": "police", "name": "POLSEK BOJA", "name_en": "", "source": "" }, "geometry": { "type": "Point", "coordinates": [ 110.273045, -7.106043 ] } }
,
{ "type": "Feature", "properties": { "osm_id": "1904658776", "lastchange": "", "code": "2001", "fclass": "police", "name": "Polsek Sukasari", "name_en": "", "source": "" }, "geometry": { "type": "Point", "coordinates": [ 107.582646, -6.868747 ] } }
,
{ "type": "Feature", "properties": { "osm_id": "1912469872", "lastchange": "", "code": "2001", "fclass": "police", "name": "subsektor Gema Kuningan", "name_en": "", "source": "" }, "geometry": { "type": "Point", "coordinates": [ 106.835006, -6.223185 ] } }
,
{ "type": "Feature", "properties": { "osm_id": "1918253480", "lastchange": "", "code": "2001", "fclass": "police", "name": "", "name_en": "", "source": "" }, "geometry": { "type": "Point", "coordinates": [ 100.356431, -0.935484 ] } }
,
{ "type": "Feature", "properties": { "osm_id": "1924683688", "lastchange": "", "code": "2001", "fclass": "police", "name": "Pos Polisi Sub Sektor Nefonaek", "name_en": "", "source": "" }, "geometry": { "type": "Point", "coordinates": [ 123.603369, -10.154773 ] } }
,
{ "type": "Feature", "properties": { "osm_id": "1925041345", "lastchange": "", "code": "2001", "fclass": "police", "name": "", "name_en": "", "source": "" }, "geometry": { "type": "Point", "coordinates": [ 106.885117, -7.217207 ] } }
,
{ "type": "Feature", "properties": { "osm_id": "1928497722", "lastchange": "", "code": "2001", "fclass": "police", "name": "", "name_en": "", "source": "" }, "geometry": { "type": "Point", "coordinates": [ 119.439626, -5.140756 ] } }
,
{ "type": "Feature", "properties": { "osm_id": "1934657793", "lastchange": "", "code": "2001", "fclass": "police", "name": "DANRAMIL Lika kaum", "name_en": "", "source": "" }, "geometry": { "type": "Point", "coordinates": [ 100.566871, -0.462340 ] } }
,
{ "type": "Feature", "properties": { "osm_id": "1934657795", "lastchange": "", "code": "2001", "fclass": "police", "name": "Kapolsek Lima kaum", "name_en": "", "source": "" }, "geometry": { "type": "Point", "coordinates": [ 100.567031, -0.462566 ] } }
,
{ "type": "Feature", "properties": { "osm_id": "1937480195", "lastchange": "", "code": "2001", "fclass": "police", "name": "Polres Tanjungkarang", "name_en": "", "source": "" }, "geometry": { "type": "Point", "coordinates": [ 105.254001, -5.423103 ] } }
,
{ "type": "Feature", "properties": { "osm_id": "1945583826", "lastchange": "", "code": "2001", "fclass": "police", "name": "Kantor SATLANTAS", "name_en": "", "source": "" }, "geometry": { "type": "Point", "coordinates": [ 100.594772, -0.456090 ] } }
,
{ "type": "Feature", "properties": { "osm_id": "1950340720", "lastchange": "", "code": "2001", "fclass": "police", "name": "POLRESTA PONTIANAK KOTA", "name_en": "", "source": "" }, "geometry": { "type": "Point", "coordinates": [ 109.329725, -0.040285 ] } }
,
{ "type": "Feature", "properties": { "osm_id": "1950340724", "lastchange": "", "code": "2001", "fclass": "police", "name": "", "name_en": "", "source": "" }, "geometry": { "type": "Point", "coordinates": [ 109.361499, -0.069101 ] } }
,
{ "type": "Feature", "properties": { "osm_id": "1956528398", "lastchange": "", "code": "2001", "fclass": "police", "name": "Kantor SATLANTAS POLRES KUKAR", "name_en": "", "source": "" }, "geometry": { "type": "Point", "coordinates": [ 116.990581, -0.410724 ] } }
,
{ "type": "Feature", "properties": { "osm_id": "1963490862", "lastchange": "", "code": "2001", "fclass": "police", "name": "", "name_en": "", "source": "" }, "geometry": { "type": "Point", "coordinates": [ 115.182969, -8.648546 ] } }
,
{ "type": "Feature", "properties": { "osm_id": "1966161419", "lastchange": "", "code": "2001", "fclass": "police", "name": "Pos Keamanan RT 10 RW 13", "name_en": "", "source": "" }, "geometry": { "type": "Point", "coordinates": [ 107.652472, -6.959801 ] } }
,
{ "type": "Feature", "properties": { "osm_id": "1966214745", "lastchange": "", "code": "2001", "fclass": "police", "name": "Pos Polisi", "name_en": "", "source": "" }, "geometry": { "type": "Point", "coordinates": [ 107.643979, -6.954698 ] } }
,
{ "type": "Feature", "properties": { "osm_id": "1968027547", "lastchange": "", "code": "2001", "fclass": "police", "name": "SAMSAT", "name_en": "", "source": "" }, "geometry": { "type": "Point", "coordinates": [ 116.088965, -8.578107 ] } }
,
{ "type": "Feature", "properties": { "osm_id": "1970240811", "lastchange": "", "code": "2001", "fclass": "police", "name": "Posko THI", "name_en": "", "source": "" }, "geometry": { "type": "Point", "coordinates": [ 106.787471, -6.146414 ] } }
,
{ "type": "Feature", "properties": { "osm_id": "1971822768", "lastchange": "", "code": "2001", "fclass": "police", "name": "", "name_en": "", "source": "" }, "geometry": { "type": "Point", "coordinates": [ 109.331334, -0.040488 ] } }
,
{ "type": "Feature", "properties": { "osm_id": "1973448667", "lastchange": "", "code": "2001", "fclass": "police", "name": "POLDA SULSELBAR", "name_en": "", "source": "" }, "geometry": { "type": "Point", "coordinates": [ 119.514624, -5.095961 ] } }
,
{ "type": "Feature", "properties": { "osm_id": "1982562599", "lastchange": "", "code": "2001", "fclass": "police", "name": "DANRAMIL Tanjung Emas", "name_en": "", "source": "" }, "geometry": { "type": "Point", "coordinates": [ 100.664069, -0.486538 ] } }
,
{ "type": "Feature", "properties": { "osm_id": "1982568491", "lastchange": "", "code": "2001", "fclass": "police", "name": "Polsek Tanjung Emas", "name_en": "", "source": "" }, "geometry": { "type": "Point", "coordinates": [ 100.656721, -0.486707 ] } }
,
{ "type": "Feature", "properties": { "osm_id": "1987864816", "lastchange": "", "code": "2001", "fclass": "police", "name": "", "name_en": "", "source": "" }, "geometry": { "type": "Point", "coordinates": [ 110.433452, -5.879388 ] } }
,
{ "type": "Feature", "properties": { "osm_id": "1987936551", "lastchange": "", "code": "2001", "fclass": "police", "name": "polsek Bagu", "name_en": "", "source": "" }, "geometry": { "type": "Point", "coordinates": [ 116.198660, -8.616805 ] } }
,
{ "type": "Feature", "properties": { "osm_id": "1988462937", "lastchange": "", "code": "2001", "fclass": "police", "name": "", "name_en": "", "source": "" }, "geometry": { "type": "Point", "coordinates": [ 110.400412, -7.757793 ] } }
,
{ "type": "Feature", "properties": { "osm_id": "1991141327", "lastchange": "", "code": "2001", "fclass": "police", "name": "Kompleks Kompi Senapan", "name_en": "", "source": "" }, "geometry": { "type": "Point", "coordinates": [ 118.735793, -8.447685 ] } }
,
{ "type": "Feature", "properties": { "osm_id": "1998363420", "lastchange": "", "code": "2001", "fclass": "police", "name": "Kantor Polisi", "name_en": "", "source": "" }, "geometry": { "type": "Point", "coordinates": [ 121.362633, -2.528312 ] } }
,
{ "type": "Feature", "properties": { "osm_id": "1998363597", "lastchange": "", "code": "2001", "fclass": "police", "name": "", "name_en": "", "source": "" }, "geometry": { "type": "Point", "coordinates": [ 121.362633, -2.528312 ] } }
,
{ "type": "Feature", "properties": { "osm_id": "2004808629", "lastchange": "", "code": "2001", "fclass": "police", "name": "", "name_en": "", "source": "" }, "geometry": { "type": "Point", "coordinates": [ 110.007649, -7.713769 ] } }
,
{ "type": "Feature", "properties": { "osm_id": "2004857646", "lastchange": "", "code": "2001", "fclass": "police", "name": "POLRES SLEMAN", "name_en": "", "source": "" }, "geometry": { "type": "Point", "coordinates": [ 110.346768, -7.697023 ] } }
,
{ "type": "Feature", "properties": { "osm_id": "2004865511", "lastchange": "", "code": "2001", "fclass": "police", "name": "KANTOR SAMSAT SLEMAN", "name_en": "", "source": "" }, "geometry": { "type": "Point", "coordinates": [ 110.347149, -7.698637 ] } }
,
{ "type": "Feature", "properties": { "osm_id": "2004967044", "lastchange": "", "code": "2001", "fclass": "police", "name": "POLRES Cilacap", "name_en": "", "source": "" }, "geometry": { "type": "Point", "coordinates": [ 109.025572, -7.692909 ] } }
,
{ "type": "Feature", "properties": { "osm_id": "2011933327", "lastchange": "", "code": "2001", "fclass": "police", "name": "POS KEAMANAN PONDOK DADUNG", "name_en": "", "source": "" }, "geometry": { "type": "Point", "coordinates": [ 112.640992, -7.698339 ] } }
,
{ "type": "Feature", "properties": { "osm_id": "2017794805", "lastchange": "", "code": "2001", "fclass": "police", "name": "Kantor PolSek Pekat", "name_en": "", "source": "" }, "geometry": { "type": "Point", "coordinates": [ 117.857398, -8.374350 ] } }
,
{ "type": "Feature", "properties": { "osm_id": "2025175549", "lastchange": "", "code": "2001", "fclass": "police", "name": "", "name_en": "", "source": "" }, "geometry": { "type": "Point", "coordinates": [ 107.627451, -6.941625 ] } }
,
{ "type": "Feature", "properties": { "osm_id": "2034855668", "lastchange": "", "code": "2001", "fclass": "police", "name": "KANTOR POLISI TAMALANREA", "name_en": "", "source": "" }, "geometry": { "type": "Point", "coordinates": [ 119.511465, -5.137107 ] } }
,
{ "type": "Feature", "properties": { "osm_id": "2034877029", "lastchange": "", "code": "2001", "fclass": "police", "name": "POS POLISI", "name_en": "", "source": "" }, "geometry": { "type": "Point", "coordinates": [ 119.481416, -5.089190 ] } }
,
{ "type": "Feature", "properties": { "osm_id": "2034879016", "lastchange": "", "code": "2001", "fclass": "police", "name": "POS POLISI", "name_en": "", "source": "" }, "geometry": { "type": "Point", "coordinates": [ 119.481416, -5.089190 ] } }
,
{ "type": "Feature", "properties": { "osm_id": "2034902495", "lastchange": "", "code": "2001", "fclass": "police", "name": "POS POLISI", "name_en": "", "source": "" }, "geometry": { "type": "Point", "coordinates": [ 119.481416, -5.089190 ] } }
,
{ "type": "Feature", "properties": { "osm_id": "2037621924", "lastchange": "", "code": "2001", "fclass": "police", "name": "Polsek Kota Dompu", "name_en": "", "source": "" }, "geometry": { "type": "Point", "coordinates": [ 118.461835, -8.527992 ] } }
,
{ "type": "Feature", "properties": { "osm_id": "2049773686", "lastchange": "", "code": "2001", "fclass": "police", "name": "Kantor Polisi", "name_en": "", "source": "" }, "geometry": { "type": "Point", "coordinates": [ 118.465884, -8.538927 ] } }
,
{ "type": "Feature", "properties": { "osm_id": "2050605938", "lastchange": "", "code": "2001", "fclass": "police", "name": "Kantor Polisi Bojong", "name_en": "", "source": "" }, "geometry": { "type": "Point", "coordinates": [ 106.806129, -6.476091 ] } }
,
{ "type": "Feature", "properties": { "osm_id": "2052421366", "lastchange": "", "code": "2001", "fclass": "police", "name": "Polsek Parung", "name_en": "", "source": "" }, "geometry": { "type": "Point", "coordinates": [ 106.733023, -6.419756 ] } }
,
{ "type": "Feature", "properties": { "osm_id": "2055927490", "lastchange": "", "code": "2001", "fclass": "police", "name": "KANTOR POLISI TAMALANREA", "name_en": "", "source": "" }, "geometry": { "type": "Point", "coordinates": [ 119.511465, -5.137107 ] } }
,
{ "type": "Feature", "properties": { "osm_id": "2077495422", "lastchange": "", "code": "2001", "fclass": "police", "name": "KANTOR POLISI TAMALANREA", "name_en": "", "source": "" }, "geometry": { "type": "Point", "coordinates": [ 119.511465, -5.137107 ] } }
,
{ "type": "Feature", "properties": { "osm_id": "2078184756", "lastchange": "", "code": "2001", "fclass": "police", "name": "Kantor Polisi", "name_en": "", "source": "" }, "geometry": { "type": "Point", "coordinates": [ 119.412715, -5.144644 ] } }
,
{ "type": "Feature", "properties": { "osm_id": "2079363658", "lastchange": "", "code": "2001", "fclass": "police", "name": "Kantor Keamanan", "name_en": "", "source": "" }, "geometry": { "type": "Point", "coordinates": [ 106.889978, -6.300205 ] } }
,
{ "type": "Feature", "properties": { "osm_id": "2086707239", "lastchange": "", "code": "2001", "fclass": "police", "name": "", "name_en": "", "source": "" }, "geometry": { "type": "Point", "coordinates": [ 104.601536, 0.850249 ] } }
,
{ "type": "Feature", "properties": { "osm_id": "2089502119", "lastchange": "", "code": "2001", "fclass": "police", "name": "Polsek Pauh", "name_en": "", "source": "" }, "geometry": { "type": "Point", "coordinates": [ 100.425621, -0.930015 ] } }
,
{ "type": "Feature", "properties": { "osm_id": "2094885429", "lastchange": "", "code": "2001", "fclass": "police", "name": "Koramil", "name_en": "", "source": "" }, "geometry": { "type": "Point", "coordinates": [ 118.684133, -8.455310 ] } }
,
{ "type": "Feature", "properties": { "osm_id": "2100236013", "lastchange": "", "code": "2001", "fclass": "police", "name": "Polsek", "name_en": "", "source": "" }, "geometry": { "type": "Point", "coordinates": [ 118.570814, -8.755190 ] } }
,
{ "type": "Feature", "properties": { "osm_id": "2122165004", "lastchange": "", "code": "2001", "fclass": "police", "name": "Sektor Praya Barat - Praya Barat Police District Office", "name_en": "", "source": "" }, "geometry": { "type": "Point", "coordinates": [ 116.248259, -8.750805 ] } }
,
{ "type": "Feature", "properties": { "osm_id": "2134538565", "lastchange": "", "code": "2001", "fclass": "police", "name": "", "name_en": "", "source": "" }, "geometry": { "type": "Point", "coordinates": [ 110.708317, -7.588144 ] } }
,
{ "type": "Feature", "properties": { "osm_id": "2147601491", "lastchange": "", "code": "2001", "fclass": "police", "name": "Polisi Sektor Amlapura", "name_en": "", "source": "" }, "geometry": { "type": "Point", "coordinates": [ 115.606210, -8.448997 ] } }
,
{ "type": "Feature", "properties": { "osm_id": "2149930120", "lastchange": "", "code": "2001", "fclass": "police", "name": "Polsek", "name_en": "", "source": "" }, "geometry": { "type": "Point", "coordinates": [ 118.768929, -8.315522 ] } }
,
{ "type": "Feature", "properties": { "osm_id": "2153956401", "lastchange": "", "code": "2001", "fclass": "police", "name": "Polsek Kalisat", "name_en": "", "source": "" }, "geometry": { "type": "Point", "coordinates": [ 113.811217, -8.128440 ] } }
,
{ "type": "Feature", "properties": { "osm_id": "2154038578", "lastchange": "", "code": "2001", "fclass": "police", "name": "Polsek Klari", "name_en": "", "source": "" }, "geometry": { "type": "Point", "coordinates": [ 107.367845, -6.367303 ] } }
,
{ "type": "Feature", "properties": { "osm_id": "2154403933", "lastchange": "", "code": "2001", "fclass": "police", "name": "Polres Karangasem", "name_en": "", "source": "" }, "geometry": { "type": "Point", "coordinates": [ 115.615907, -8.449744 ] } }
,
{ "type": "Feature", "properties": { "osm_id": "2163914406", "lastchange": "", "code": "2001", "fclass": "police", "name": "Pos Poliisi Nggaha Ori Angu", "name_en": "", "source": "" }, "geometry": { "type": "Point", "coordinates": [ 120.030029, -9.713558 ] } }
,
{ "type": "Feature", "properties": { "osm_id": "2177371019", "lastchange": "", "code": "2001", "fclass": "police", "name": "Satlantas Bengkalis", "name_en": "", "source": "" }, "geometry": { "type": "Point", "coordinates": [ 102.120819, 1.476016 ] } }
,
{ "type": "Feature", "properties": { "osm_id": "2177957905", "lastchange": "", "code": "2001", "fclass": "police", "name": "Pengadilan Negeri Salatiga", "name_en": "", "source": "" }, "geometry": { "type": "Point", "coordinates": [ 110.508833, -7.341752 ] } }
,
{ "type": "Feature", "properties": { "osm_id": "2180344972", "lastchange": "", "code": "2001", "fclass": "police", "name": "Sat Reskrim Polrestabes Bandung", "name_en": "", "source": "" }, "geometry": { "type": "Point", "coordinates": [ 107.611696, -6.914325 ] } }
,
{ "type": "Feature", "properties": { "osm_id": "2096546208", "lastchange": "", "code": "2001", "fclass": "police", "name": "Balai Polis Yong Peng", "name_en": "", "source": "" }, "geometry": { "type": "Point", "coordinates": [ 103.057280, 2.011183 ] } }
,
{ "type": "Feature", "properties": { "osm_id": "1883550659", "lastchange": "", "code": "2001", "fclass": "police", "name": "IPD Langkawi", "name_en": "", "source": "" }, "geometry": { "type": "Point", "coordinates": [ 99.848561, 6.326474 ] } }
,
{ "type": "Feature", "properties": { "osm_id": "1318556860", "lastchange": "", "code": "2001", "fclass": "police", "name": "Sri Sentosa Polis Post", "name_en": "", "source": "" }, "geometry": { "type": "Point", "coordinates": [ 101.653163, 3.072844 ] } }
,
{ "type": "Feature", "properties": { "osm_id": "1858751475", "lastchange": "", "code": "2001", "fclass": "police", "name": "Pasir Panjang Neighbourhood Police Post (NPP)", "name_en": "", "source": "" }, "geometry": { "type": "Point", "coordinates": [ 103.793374, 1.275455 ] } }
,
{ "type": "Feature", "properties": { "osm_id": "2074061875", "lastchange": "", "code": "2001", "fclass": "police", "name": "", "name_en": "", "source": "" }, "geometry": { "type": "Point", "coordinates": [ 102.246644, 2.196741 ] } }
,
{ "type": "Feature", "properties": { "osm_id": "2054033150", "lastchange": "", "code": "2001", "fclass": "police", "name": "IPD Ampang Jaya", "name_en": "", "source": "" }, "geometry": { "type": "Point", "coordinates": [ 101.756631, 3.148477 ] } }
,
{ "type": "Feature", "properties": { "osm_id": "1843450676", "lastchange": "", "code": "2001", "fclass": "police", "name": "Clementi NPP", "name_en": "", "source": "" }, "geometry": { "type": "Point", "coordinates": [ 103.764193, 1.311983 ] } }
,
{ "type": "Feature", "properties": { "osm_id": "1636144260", "lastchange": "", "code": "2001", "fclass": "police", "name": "Kim Keat Neighbourhood Police Post", "name_en": "", "source": "" }, "geometry": { "type": "Point", "coordinates": [ 103.859502, 1.337106 ] } }
,
{ "type": "Feature", "properties": { "osm_id": "1610800812", "lastchange": "", "code": "2001", "fclass": "police", "name": "", "name_en": "", "source": "" }, "geometry": { "type": "Point", "coordinates": [ 100.269133, 5.424961 ] } }
,
{ "type": "Feature", "properties": { "osm_id": "2015142868", "lastchange": "", "code": "2001", "fclass": "police", "name": "Boon Teck NPP", "name_en": "", "source": "" }, "geometry": { "type": "Point", "coordinates": [ 103.845558, 1.342262 ] } }
,
{ "type": "Feature", "properties": { "osm_id": "992501780", "lastchange": "", "code": "2001", "fclass": "police", "name": "Tampines North Neighbourhood Police Post", "name_en": "", "source": "" }, "geometry": { "type": "Point", "coordinates": [ 103.954535, 1.358913 ] } }
,
{ "type": "Feature", "properties": { "osm_id": "1833873950", "lastchange": "", "code": "2001", "fclass": "police", "name": "Telok Blangah NPP", "name_en": "", "source": "" }, "geometry": { "type": "Point", "coordinates": [ 103.809613, 1.273508 ] } }
,
{ "type": "Feature", "properties": { "osm_id": "1169360924", "lastchange": "", "code": "2001", "fclass": "police", "name": "", "name_en": "", "source": "" }, "geometry": { "type": "Point", "coordinates": [ 101.623339, 3.048854 ] } }
,
{ "type": "Feature", "properties": { "osm_id": "1741084520", "lastchange": "", "code": "2001", "fclass": "police", "name": "Bukit Batok Neighbourhood Police Centre", "name_en": "", "source": "" }, "geometry": { "type": "Point", "coordinates": [ 103.758520, 1.349106 ] } }
,
{ "type": "Feature", "properties": { "osm_id": "1548436393", "lastchange": "", "code": "2001", "fclass": "police", "name": "Bukit Merah East Neighbourhood Police Centre", "name_en": "", "source": "" }, "geometry": { "type": "Point", "coordinates": [ 103.839611, 1.278814 ] } }
,
{ "type": "Feature", "properties": { "osm_id": "1778957130", "lastchange": "", "code": "2001", "fclass": "police", "name": "Kalana Jaya Police Station", "name_en": "", "source": "" }, "geometry": { "type": "Point", "coordinates": [ 101.600258, 3.100587 ] } }
,
{ "type": "Feature", "properties": { "osm_id": "821392130", "lastchange": "", "code": "2001", "fclass": "police", "name": "Ibupejabat Polis Daerah Kajang", "name_en": "", "source": "" }, "geometry": { "type": "Point", "coordinates": [ 101.788135, 2.993575 ] } }
,
{ "type": "Feature", "properties": { "osm_id": "1818632302", "lastchange": "", "code": "2001", "fclass": "police", "name": "", "name_en": "", "source": "" }, "geometry": { "type": "Point", "coordinates": [ 100.343459, 5.418792 ] } }
,
{ "type": "Feature", "properties": { "osm_id": "1603441710", "lastchange": "", "code": "2001", "fclass": "police", "name": "", "name_en": "", "source": "" }, "geometry": { "type": "Point", "coordinates": [ 100.556453, 5.369808 ] } }
,
{ "type": "Feature", "properties": { "osm_id": "1841560467", "lastchange": "", "code": "2001", "fclass": "police", "name": "", "name_en": "", "source": "" }, "geometry": { "type": "Point", "coordinates": [ 114.330222, 4.612228 ] } }
,
{ "type": "Feature", "properties": { "osm_id": "284005482", "lastchange": "", "code": "2001", "fclass": "police", "name": "Balai Polis", "name_en": "", "source": "" }, "geometry": { "type": "Point", "coordinates": [ 101.828269, 2.973550 ] } }
,
{ "type": "Feature", "properties": { "osm_id": "1985349905", "lastchange": "", "code": "2001", "fclass": "police", "name": "Kota Damansara Police Station", "name_en": "", "source": "" }, "geometry": { "type": "Point", "coordinates": [ 101.593060, 3.152161 ] } }
,
{ "type": "Feature", "properties": { "osm_id": "1080233677", "lastchange": "", "code": "2001", "fclass": "police", "name": "Commonwealth NPP", "name_en": "", "source": "" }, "geometry": { "type": "Point", "coordinates": [ 103.798670, 1.306472 ] } }
,
{ "type": "Feature", "properties": { "osm_id": "247172809", "lastchange": "", "code": "2001", "fclass": "police", "name": "Balai Polis", "name_en": "", "source": "" }, "geometry": { "type": "Point", "coordinates": [ 102.773459, 2.150324 ] } }
,
{ "type": "Feature", "properties": { "osm_id": "1995402406", "lastchange": "", "code": "2001", "fclass": "police", "name": "Lahad Datu Police Station", "name_en": "", "source": "" }, "geometry": { "type": "Point", "coordinates": [ 118.328144, 5.024231 ] } }
,
{ "type": "Feature", "properties": { "osm_id": "1995402389", "lastchange": "", "code": "2001", "fclass": "police", "name": "Lahad Datu Police Station", "name_en": "", "source": "" }, "geometry": { "type": "Point", "coordinates": [ 118.328144, 5.024231 ] } }
,
{ "type": "Feature", "properties": { "osm_id": "403751196", "lastchange": "", "code": "2001", "fclass": "police", "name": "Balai Polis", "name_en": "", "source": "" }, "geometry": { "type": "Point", "coordinates": [ 101.789616, 2.884184 ] } }
,
{ "type": "Feature", "properties": { "osm_id": "370655699", "lastchange": "", "code": "2001", "fclass": "police", "name": "Balai Polis", "name_en": "", "source": "" }, "geometry": { "type": "Point", "coordinates": [ 101.672310, 2.994487 ] } }
,
{ "type": "Feature", "properties": { "osm_id": "1697783512", "lastchange": "", "code": "2001", "fclass": "police", "name": "Local Police", "name_en": "", "source": "" }, "geometry": { "type": "Point", "coordinates": [ 102.402917, 4.382941 ] } }
,
{ "type": "Feature", "properties": { "osm_id": "359858086", "lastchange": "", "code": "2001", "fclass": "police", "name": "Balai Polis", "name_en": "", "source": "" }, "geometry": { "type": "Point", "coordinates": [ 101.741056, 3.196627 ] } }
,
{ "type": "Feature", "properties": { "osm_id": "2016140113", "lastchange": "", "code": "2001", "fclass": "police", "name": "Balai Polis", "name_en": "", "source": "" }, "geometry": { "type": "Point", "coordinates": [ 102.226187, 2.230335 ] } }
,
{ "type": "Feature", "properties": { "osm_id": "986168427", "lastchange": "", "code": "2001", "fclass": "police", "name": "Check point", "name_en": "", "source": "" }, "geometry": { "type": "Point", "coordinates": [ 100.416271, 6.543829 ] } }
,
{ "type": "Feature", "properties": { "osm_id": "186367622", "lastchange": "", "code": "2001", "fclass": "police", "name": "Balai Polis", "name_en": "", "source": "" }, "geometry": { "type": "Point", "coordinates": [ 102.955873, 2.521039 ] } }
,
{ "type": "Feature", "properties": { "osm_id": "256119272", "lastchange": "", "code": "2001", "fclass": "police", "name": "Balai Polis", "name_en": "", "source": "" }, "geometry": { "type": "Point", "coordinates": [ 102.814765, 2.507565 ] } }
,
{ "type": "Feature", "properties": { "osm_id": "1998246195", "lastchange": "", "code": "2001", "fclass": "police", "name": "Balai Polis Tronoh", "name_en": "", "source": "" }, "geometry": { "type": "Point", "coordinates": [ 100.985143, 4.422393 ] } }
,
{ "type": "Feature", "properties": { "osm_id": "622696807", "lastchange": "", "code": "2001", "fclass": "police", "name": "Balai Polis Batu Anam", "name_en": "", "source": "" }, "geometry": { "type": "Point", "coordinates": [ 102.707731, 2.576938 ] } }
,
{ "type": "Feature", "properties": { "osm_id": "2129578654", "lastchange": "", "code": "2001", "fclass": "police", "name": "Balai Polis Batu Ferringhi", "name_en": "", "source": "" }, "geometry": { "type": "Point", "coordinates": [ 100.246242, 5.471189 ] } }
,
{ "type": "Feature", "properties": { "osm_id": "1710714332", "lastchange": "", "code": "2001", "fclass": "police", "name": "", "name_en": "", "source": "" }, "geometry": { "type": "Point", "coordinates": [ 101.791087, 3.041825 ] } }
,
{ "type": "Feature", "properties": { "osm_id": "1954344324", "lastchange": "", "code": "2001", "fclass": "police", "name": "Balai Polis Behrang Stesen", "name_en": "", "source": "" }, "geometry": { "type": "Point", "coordinates": [ 101.455582, 3.747198 ] } }
,
{ "type": "Feature", "properties": { "osm_id": "1586675651", "lastchange": "", "code": "2001", "fclass": "police", "name": "Balai Polis Brickfields", "name_en": "", "source": "" }, "geometry": { "type": "Point", "coordinates": [ 101.678256, 3.104394 ] } }
,
{ "type": "Feature", "properties": { "osm_id": "302537184", "lastchange": "", "code": "2001", "fclass": "police", "name": "Balai Polis Bukit Gambir", "name_en": "", "source": "" }, "geometry": { "type": "Point", "coordinates": [ 102.654236, 2.212436 ] } }
,
{ "type": "Feature", "properties": { "osm_id": "1993248528", "lastchange": "", "code": "2001", "fclass": "police", "name": "Balai Polis Bukit Serdang", "name_en": "", "source": "" }, "geometry": { "type": "Point", "coordinates": [ 101.695992, 3.022448 ] } }
,
{ "type": "Feature", "properties": { "osm_id": "1666783398", "lastchange": "", "code": "2001", "fclass": "police", "name": "Balai Polis Damansara Utama", "name_en": "", "source": "" }, "geometry": { "type": "Point", "coordinates": [ 101.624483, 3.132583 ] } }
,
{ "type": "Feature", "properties": { "osm_id": "1800420837", "lastchange": "", "code": "2001", "fclass": "police", "name": "Balai Polis Desa Jaya", "name_en": "", "source": "" }, "geometry": { "type": "Point", "coordinates": [ 101.624144, 3.221896 ] } }
,
{ "type": "Feature", "properties": { "osm_id": "456318041", "lastchange": "", "code": "2001", "fclass": "police", "name": "Balai Polis Felda Lenga", "name_en": "", "source": "" }, "geometry": { "type": "Point", "coordinates": [ 102.851081, 2.240761 ] } }
,
{ "type": "Feature", "properties": { "osm_id": "2043133553", "lastchange": "", "code": "2001", "fclass": "police", "name": "Medini Police Beat Base", "name_en": "", "source": "" }, "geometry": { "type": "Point", "coordinates": [ 103.632631, 1.427777 ] } }
,
{ "type": "Feature", "properties": { "osm_id": "2050740798", "lastchange": "", "code": "2001", "fclass": "police", "name": "Balai Polis Hutan Melintang", "name_en": "", "source": "" }, "geometry": { "type": "Point", "coordinates": [ 100.937432, 3.895481 ] } }
,
{ "type": "Feature", "properties": { "osm_id": "1602345959", "lastchange": "", "code": "2001", "fclass": "police", "name": "Balai Polis Jalan Campbell", "name_en": "", "source": "" }, "geometry": { "type": "Point", "coordinates": [ 101.939868, 2.730324 ] } }
,
{ "type": "Feature", "properties": { "osm_id": "1843744034", "lastchange": "", "code": "2001", "fclass": "police", "name": "Balai Polis Jemaluang", "name_en": "", "source": "" }, "geometry": { "type": "Point", "coordinates": [ 103.856902, 2.268872 ] } }
,
{ "type": "Feature", "properties": { "osm_id": "1772487604", "lastchange": "", "code": "2001", "fclass": "police", "name": "Marine Police", "name_en": "", "source": "" }, "geometry": { "type": "Point", "coordinates": [ 118.122762, 5.841459 ] } }
,
{ "type": "Feature", "properties": { "osm_id": "336024828", "lastchange": "", "code": "2001", "fclass": "police", "name": "Balai Polis Jementah", "name_en": "", "source": "" }, "geometry": { "type": "Point", "coordinates": [ 102.684851, 2.440444 ] } }
,
{ "type": "Feature", "properties": { "osm_id": "1731702524", "lastchange": "", "code": "2001", "fclass": "police", "name": "", "name_en": "", "source": "" }, "geometry": { "type": "Point", "coordinates": [ 100.312924, 5.391569 ] } }
,
{ "type": "Feature", "properties": { "osm_id": "1738282478", "lastchange": "", "code": "2001", "fclass": "police", "name": "", "name_en": "", "source": "" }, "geometry": { "type": "Point", "coordinates": [ 103.511811, 1.507211 ] } }
,
{ "type": "Feature", "properties": { "osm_id": "1598679091", "lastchange": "", "code": "2001", "fclass": "police", "name": "Balai Polis Kerteh", "name_en": "", "source": "" }, "geometry": { "type": "Point", "coordinates": [ 103.441015, 4.495900 ] } }
,
{ "type": "Feature", "properties": { "osm_id": "1662379341", "lastchange": "", "code": "2001", "fclass": "police", "name": "Balai Polis Kuala Terang", "name_en": "", "source": "" }, "geometry": { "type": "Point", "coordinates": [ 99.713116, 6.361590 ] } }
,
{ "type": "Feature", "properties": { "osm_id": "2082884500", "lastchange": "", "code": "2001", "fclass": "police", "name": "Balai Polis Kuang", "name_en": "", "source": "" }, "geometry": { "type": "Point", "coordinates": [ 101.554165, 3.257034 ] } }
,
{ "type": "Feature", "properties": { "osm_id": "1763916321", "lastchange": "", "code": "2001", "fclass": "police", "name": "Balai Polis Lembah Subang", "name_en": "", "source": "" }, "geometry": { "type": "Point", "coordinates": [ 101.582780, 3.111395 ] } }
,
{ "type": "Feature", "properties": { "osm_id": "1050737128", "lastchange": "", "code": "2001", "fclass": "police", "name": "Balai Polis Meru", "name_en": "", "source": "" }, "geometry": { "type": "Point", "coordinates": [ 101.441346, 3.133901 ] } }
,
{ "type": "Feature", "properties": { "osm_id": "1979200184", "lastchange": "", "code": "2001", "fclass": "police", "name": "Balai Polis Paka", "name_en": "", "source": "" }, "geometry": { "type": "Point", "coordinates": [ 103.436911, 4.636923 ] } }
,
{ "type": "Feature", "properties": { "osm_id": "318168163", "lastchange": "", "code": "2001", "fclass": "police", "name": "Balai Polis Panchor", "name_en": "", "source": "" }, "geometry": { "type": "Point", "coordinates": [ 102.715039, 2.171640 ] } }
,
{ "type": "Feature", "properties": { "osm_id": "1556670097", "lastchange": "", "code": "2001", "fclass": "police", "name": "Balai Polis Pantai", "name_en": "", "source": "" }, "geometry": { "type": "Point", "coordinates": [ 101.665738, 3.117536 ] } }
,
{ "type": "Feature", "properties": { "osm_id": "333211215", "lastchange": "", "code": "2001", "fclass": "police", "name": "Balai Polis Parit Jawa", "name_en": "", "source": "" }, "geometry": { "type": "Point", "coordinates": [ 102.643733, 1.959028 ] } }
,
{ "type": "Feature", "properties": { "osm_id": "1063066262", "lastchange": "", "code": "2001", "fclass": "police", "name": "Balai Polis Pekan Baru", "name_en": "", "source": "" }, "geometry": { "type": "Point", "coordinates": [ 101.085067, 4.593353 ] } }
,
{ "type": "Feature", "properties": { "osm_id": "1966249325", "lastchange": "", "code": "2001", "fclass": "police", "name": "Balai Polis Petaling", "name_en": "", "source": "" }, "geometry": { "type": "Point", "coordinates": [ 101.666424, 3.082032 ] } }
,
{ "type": "Feature", "properties": { "osm_id": "269517887", "lastchange": "", "code": "2001", "fclass": "police", "name": "Balai Polis Pinggiran USJ", "name_en": "", "source": "" }, "geometry": { "type": "Point", "coordinates": [ 101.549781, 3.043014 ] } }
,
{ "type": "Feature", "properties": { "osm_id": "1002631715", "lastchange": "", "code": "2001", "fclass": "police", "name": "", "name_en": "", "source": "" }, "geometry": { "type": "Point", "coordinates": [ 114.939989, 4.891332 ] } }
,
{ "type": "Feature", "properties": { "osm_id": "1484573942", "lastchange": "", "code": "2001", "fclass": "police", "name": "", "name_en": "", "source": "" }, "geometry": { "type": "Point", "coordinates": [ 103.108240, 1.858622 ] } }
,
{ "type": "Feature", "properties": { "osm_id": "1807801407", "lastchange": "", "code": "2001", "fclass": "police", "name": "Balai Polis Pulau Tikus", "name_en": "", "source": "" }, "geometry": { "type": "Point", "coordinates": [ 100.312794, 5.430674 ] } }
,
{ "type": "Feature", "properties": { "osm_id": "1822857178", "lastchange": "", "code": "2001", "fclass": "police", "name": "Ibu Pejabat Polis Terengganu", "name_en": "", "source": "" }, "geometry": { "type": "Point", "coordinates": [ 103.140458, 5.327184 ] } }
,
{ "type": "Feature", "properties": { "osm_id": "1933301570", "lastchange": "", "code": "2001", "fclass": "police", "name": "Balai Polis Pusing", "name_en": "", "source": "" }, "geometry": { "type": "Point", "coordinates": [ 101.011209, 4.495239 ] } }
,
{ "type": "Feature", "properties": { "osm_id": "1748129373", "lastchange": "", "code": "2001", "fclass": "police", "name": "Police Slim River", "name_en": "", "source": "" }, "geometry": { "type": "Point", "coordinates": [ 101.405372, 3.830035 ] } }
,
{ "type": "Feature", "properties": { "osm_id": "2021108587", "lastchange": "", "code": "2001", "fclass": "police", "name": "Balai Polis Rawang", "name_en": "", "source": "" }, "geometry": { "type": "Point", "coordinates": [ 101.577141, 3.319031 ] } }
,
{ "type": "Feature", "properties": { "osm_id": "1774214850", "lastchange": "", "code": "2001", "fclass": "police", "name": "Sandakan District Police Headquarters", "name_en": "", "source": "" }, "geometry": { "type": "Point", "coordinates": [ 118.114538, 5.861629 ] } }
,
{ "type": "Feature", "properties": { "osm_id": "1456699912", "lastchange": "", "code": "2001", "fclass": "police", "name": "Police Station", "name_en": "", "source": "" }, "geometry": { "type": "Point", "coordinates": [ 101.379948, 4.471752 ] } }
,
{ "type": "Feature", "properties": { "osm_id": "206967384", "lastchange": "", "code": "2001", "fclass": "police", "name": "balai Polis Precinct 11", "name_en": "", "source": "" }, "geometry": { "type": "Point", "coordinates": [ 101.679062, 2.962882 ] } }
,
{ "type": "Feature", "properties": { "osm_id": "1882615168", "lastchange": "", "code": "2001", "fclass": "police", "name": "", "name_en": "", "source": "" }, "geometry": { "type": "Point", "coordinates": [ 101.521494, 3.059168 ] } }
,
{ "type": "Feature", "properties": { "osm_id": "2075875017", "lastchange": "", "code": "2001", "fclass": "police", "name": "Balai Polis Sanglang", "name_en": "", "source": "" }, "geometry": { "type": "Point", "coordinates": [ 100.217514, 6.280626 ] } }
,
{ "type": "Feature", "properties": { "osm_id": "956602382", "lastchange": "", "code": "2001", "fclass": "police", "name": "", "name_en": "", "source": "" }, "geometry": { "type": "Point", "coordinates": [ 103.749848, 1.359968 ] } }
,
{ "type": "Feature", "properties": { "osm_id": "2132248711", "lastchange": "", "code": "2001", "fclass": "police", "name": "Balai Polis Saujana Utama", "name_en": "", "source": "" }, "geometry": { "type": "Point", "coordinates": [ 101.480838, 3.205562 ] } }
,
{ "type": "Feature", "properties": { "osm_id": "1810973668", "lastchange": "", "code": "2001", "fclass": "police", "name": "Balai Polis Seguntor", "name_en": "", "source": "" }, "geometry": { "type": "Point", "coordinates": [ 118.031791, 5.884012 ] } }
,
{ "type": "Feature", "properties": { "osm_id": "772438290", "lastchange": "", "code": "2001", "fclass": "police", "name": "Police Station Bandar Baru", "name_en": "", "source": "" }, "geometry": { "type": "Point", "coordinates": [ 101.467619, 3.062978 ] } }
,
{ "type": "Feature", "properties": { "osm_id": "1945857656", "lastchange": "", "code": "2001", "fclass": "police", "name": "", "name_en": "", "source": "" }, "geometry": { "type": "Point", "coordinates": [ 101.537937, 3.032674 ] } }
,
{ "type": "Feature", "properties": { "osm_id": "2046952398", "lastchange": "", "code": "2001", "fclass": "police", "name": "Sentul Police Station", "name_en": "", "source": "" }, "geometry": { "type": "Point", "coordinates": [ 101.683917, 3.175643 ] } }
,
{ "type": "Feature", "properties": { "osm_id": "1681212543", "lastchange": "", "code": "2001", "fclass": "police", "name": "Police Station Kuantan", "name_en": "", "source": "" }, "geometry": { "type": "Point", "coordinates": [ 103.325060, 3.804168 ] } }
,
{ "type": "Feature", "properties": { "osm_id": "338516541", "lastchange": "", "code": "2001", "fclass": "police", "name": "Balai Polis Serom", "name_en": "", "source": "" }, "geometry": { "type": "Point", "coordinates": [ 102.586891, 2.164902 ] } }
,
{ "type": "Feature", "properties": { "osm_id": "1530980014", "lastchange": "", "code": "2001", "fclass": "police", "name": "Serangoon Neighbourhood Police Centre", "name_en": "", "source": "" }, "geometry": { "type": "Point", "coordinates": [ 103.870511, 1.352045 ] } }
,
{ "type": "Feature", "properties": { "osm_id": "1843744037", "lastchange": "", "code": "2001", "fclass": "police", "name": "Balai Polis Sg Ambat", "name_en": "", "source": "" }, "geometry": { "type": "Point", "coordinates": [ 103.869166, 2.157045 ] } }
,
{ "type": "Feature", "properties": { "osm_id": "331879914", "lastchange": "", "code": "2001", "fclass": "police", "name": "Balai Polis Sri Gading", "name_en": "", "source": "" }, "geometry": { "type": "Point", "coordinates": [ 103.031116, 1.851144 ] } }
,
{ "type": "Feature", "properties": { "osm_id": "1745064163", "lastchange": "", "code": "2001", "fclass": "police", "name": "Police station Ijok", "name_en": "", "source": "" }, "geometry": { "type": "Point", "coordinates": [ 101.416698, 3.314970 ] } }
,
{ "type": "Feature", "properties": { "osm_id": "255471420", "lastchange": "", "code": "2001", "fclass": "police", "name": "", "name_en": "", "source": "" }, "geometry": { "type": "Point", "coordinates": [ 101.489522, 3.064576 ] } }
,
{ "type": "Feature", "properties": { "osm_id": "1680969906", "lastchange": "", "code": "2001", "fclass": "police", "name": "Polis Bentong", "name_en": "", "source": "" }, "geometry": { "type": "Point", "coordinates": [ 101.909566, 3.525306 ] } }
,
{ "type": "Feature", "properties": { "osm_id": "1650013001", "lastchange": "", "code": "2001", "fclass": "police", "name": "Balai Polis Sungai Besi", "name_en": "", "source": "" }, "geometry": { "type": "Point", "coordinates": [ 101.709314, 3.064731 ] } }
,
{ "type": "Feature", "properties": { "osm_id": "598841939", "lastchange": "", "code": "2001", "fclass": "police", "name": "Balai Polis Sungai Petani", "name_en": "", "source": "" }, "geometry": { "type": "Point", "coordinates": [ 100.489186, 5.640951 ] } }
,
{ "type": "Feature", "properties": { "osm_id": "333695213", "lastchange": "", "code": "2001", "fclass": "police", "name": "Ibu Pejabat Polis Muar", "name_en": "", "source": "" }, "geometry": { "type": "Point", "coordinates": [ 102.563230, 2.044422 ] } }
,
{ "type": "Feature", "properties": { "osm_id": "1858271219", "lastchange": "", "code": "2001", "fclass": "police", "name": "Ibu Pejabat Polis Ipoh", "name_en": "", "source": "" }, "geometry": { "type": "Point", "coordinates": [ 101.074991, 4.595545 ] } }
,
{ "type": "Feature", "properties": { "osm_id": "1822759111", "lastchange": "", "code": "2001", "fclass": "police", "name": "Polis Trafik Maran", "name_en": "", "source": "" }, "geometry": { "type": "Point", "coordinates": [ 102.773966, 3.581093 ] } }
,
{ "type": "Feature", "properties": { "osm_id": "1676568264", "lastchange": "", "code": "2001", "fclass": "police", "name": "Balai Polis Taman Tun Dr Ismail", "name_en": "", "source": "" }, "geometry": { "type": "Point", "coordinates": [ 101.624512, 3.153173 ] } }
,
{ "type": "Feature", "properties": { "osm_id": "2043132996", "lastchange": "", "code": "2001", "fclass": "police", "name": "Anjung Police Station", "name_en": "", "source": "" }, "geometry": { "type": "Point", "coordinates": [ 103.617996, 1.424163 ] } }
,
{ "type": "Feature", "properties": { "osm_id": "340260280", "lastchange": "", "code": "2001", "fclass": "police", "name": "Polis Trafik Muar", "name_en": "", "source": "" },